{
"type": "FeatureCollection",
"name": "dbizi_stops",
"crs": { "type": "name", "properties": { "name": "urn:ogc:def:crs:OGC:1.3:CRS84" } },
"features": [
{ "type": "Feature", "properties": { "ID": 1.0, "Nombre": "01 - UDALETXEA / AYUNTAMIENTO", "Grupo": null, "Total docks": 23, "Latitude": 43.321446, "Longitude": -1.986424, "Unnamed: 6": null }, "geometry": { "type": "Point", "coordinates": [ -1.986424, 43.321446 ] } },
{ "type": "Feature", "properties": { "ID": 2.0, "Nombre": "02 - BRETXA", "Grupo": null, "Total docks": 15, "Latitude": 43.322967, "Longitude": -1.982296, "Unnamed: 6": null }, "geometry": { "type": "Point", "coordinates": [ -1.982296, 43.322967 ] } },
{ "type": "Feature", "properties": { "ID": 3.0, "Nombre": "03 - SANTA KATALINA PLAZATXOA", "Grupo": null, "Total docks": 15, "Latitude": 43.321342, "Longitude": -1.980052, "Unnamed: 6": null }, "geometry": { "type": "Point", "coordinates": [ -1.980052, 43.321342 ] } },
{ "type": "Feature", "properties": { "ID": 4.0, "Nombre": "04 - ANDIA", "Grupo": null, "Total docks": 23, "Latitude": 43.320539, "Longitude": -1.982483, "Unnamed: 6": null }, "geometry": { "type": "Point", "coordinates": [ -1.982483, 43.320539 ] } },
{ "type": "Feature", "properties": { "ID": 5.0, "Nombre": "05 - SAN MARTZIAL", "Grupo": null, "Total docks": 15, "Latitude": 43.319301, "Longitude": -1.980584, "Unnamed: 6": null }, "geometry": { "type": "Point", "coordinates": [ -1.980584, 43.319301 ] } },
{ "type": "Feature", "properties": { "ID": 6.0, "Nombre": "06 - ARRASATE", "Grupo": null, "Total docks": 16, "Latitude": 43.318323, "Longitude": -1.981554, "Unnamed: 6": null }, "geometry": { "type": "Point", "coordinates": [ -1.981554, 43.318323 ] } },
{ "type": "Feature", "properties": { "ID": 7.0, "Nombre": "07 - MARQUÉS MIRAFLORES", "Grupo": null, "Total docks": 19, "Latitude": 43.317033, "Longitude": -1.98601, "Unnamed: 6": null }, "geometry": { "type": "Point", "coordinates": [ -1.98601, 43.317033 ] } },
{ "type": "Feature", "properties": { "ID": 8.0, "Nombre": "08 - URDANETA", "Grupo": null, "Total docks": 19, "Latitude": 43.315793, "Longitude": -1.982593, "Unnamed: 6": null }, "geometry": { "type": "Point", "coordinates": [ -1.982593, 43.315793 ] } },
{ "type": "Feature", "properties": { "ID": 9.0, "Nombre": "09 - EASO", "Grupo": null, "Total docks": 24, "Latitude": 43.313339, "Longitude": -1.981658, "Unnamed: 6": null }, "geometry": { "type": "Point", "coordinates": [ -1.981658, 43.313339 ] } },
{ "type": "Feature", "properties": { "ID": 10.0, "Nombre": "10 - PEÑA Y GOÑI", "Grupo": null, "Total docks": 15, "Latitude": 43.32278, "Longitude": -1.977272, "Unnamed: 6": null }, "geometry": { "type": "Point", "coordinates": [ -1.977272, 43.32278 ] } },
{ "type": "Feature", "properties": { "ID": 11.0, "Nombre": "11 - SAN FRANTZISKO-IPARRAGIRRE", "Grupo": null, "Total docks": 15, "Latitude": 43.322794, "Longitude": -1.975448, "Unnamed: 6": null }, "geometry": { "type": "Point", "coordinates": [ -1.975448, 43.322794 ] } },
{ "type": "Feature", "properties": { "ID": 12.0, "Nombre": "12 - S.FRANTZISKO-GALTZADA NAGUSIA / GRAN VÍA", "Grupo": null, "Total docks": 20, "Latitude": 43.324109, "Longitude": -1.97345, "Unnamed: 6": null }, "geometry": { "type": "Point", "coordinates": [ -1.97345, 43.324109 ] } },
{ "type": "Feature", "properties": { "ID": 13.0, "Nombre": "13 - SAN FRANTZISKO- NAFARROA", "Grupo": null, "Total docks": 19, "Latitude": 43.325755, "Longitude": -1.971089, "Unnamed: 6": null }, "geometry": { "type": "Point", "coordinates": [ -1.971089, 43.325755 ] } },
{ "type": "Feature", "properties": { "ID": 14.0, "Nombre": "14 - BERMINGHAM", "Grupo": null, "Total docks": 15, "Latitude": 43.323802, "Longitude": -1.971588, "Unnamed: 6": null }, "geometry": { "type": "Point", "coordinates": [ -1.971588, 43.323802 ] } },
{ "type": "Feature", "properties": { "ID": 15.0, "Nombre": "15 - SEGUNDO IZPIZUA", "Grupo": null, "Total docks": 15, "Latitude": 43.323948, "Longitude": -1.969948, "Unnamed: 6": null }, "geometry": { "type": "Point", "coordinates": [ -1.969948, 43.323948 ] } },
{ "type": "Feature", "properties": { "ID": 16.0, "Nombre": "16 - ATARIZAR", "Grupo": null, "Total docks": 15, "Latitude": 43.321262, "Longitude": -1.959862, "Unnamed: 6": null }, "geometry": { "type": "Point", "coordinates": [ -1.959862, 43.321262 ] } },
{ "type": "Feature", "properties": { "ID": 17.0, "Nombre": "17 - SAGASTIEDER", "Grupo": "Promotional", "Total docks": 20, "Latitude": 43.313246, "Longitude": -1.956518, "Unnamed: 6": null }, "geometry": { "type": "Point", "coordinates": [ -1.956518, 43.313246 ] } },
{ "type": "Feature", "properties": { "ID": 18.0, "Nombre": "18 - TERESA DE CALCUTA", "Grupo": null, "Total docks": 15, "Latitude": 43.320261, "Longitude": -1.975568, "Unnamed: 6": null }, "geometry": { "type": "Point", "coordinates": [ -1.975568, 43.320261 ] } },
{ "type": "Feature", "properties": { "ID": 19.0, "Nombre": "19 - FRANTZIA PASEALEKUA", "Grupo": null, "Total docks": 25, "Latitude": 43.317646, "Longitude": -1.9774, "Unnamed: 6": null }, "geometry": { "type": "Point", "coordinates": [ -1.9774, 43.317646 ] } },
{ "type": "Feature", "properties": { "ID": 20.0, "Nombre": "20 - TABAKALERA", "Grupo": null, "Total docks": 19, "Latitude": 43.317163, "Longitude": -1.974992, "Unnamed: 6": null }, "geometry": { "type": "Point", "coordinates": [ -1.974992, 43.317163 ] } },
{ "type": "Feature", "properties": { "ID": 21.0, "Nombre": "21 - KARMENGO ANDRE MARIA / VIRGEN DEL CARMEN", "Grupo": "Promotional", "Total docks": 20, "Latitude": 43.316996, "Longitude": -1.971482, "Unnamed: 6": null }, "geometry": { "type": "Point", "coordinates": [ -1.971482, 43.316996 ] } },
{ "type": "Feature", "properties": { "ID": 22.0, "Nombre": "22 - ANTSO JAKITUNA / SANCHO EL SABIO", "Grupo": null, "Total docks": 15, "Latitude": 43.311191, "Longitude": -1.980445, "Unnamed: 6": null }, "geometry": { "type": "Point", "coordinates": [ -1.980445, 43.311191 ] } },
{ "type": "Feature", "properties": { "ID": 23.0, "Nombre": "23 - GABRIEL CELAYA PLAZA", "Grupo": "Promotional", "Total docks": 15, "Latitude": 43.316641, "Longitude": -1.953469, "Unnamed: 6": null }, "geometry": { "type": "Point", "coordinates": [ -1.953469, 43.316641 ] } },
{ "type": "Feature", "properties": { "ID": 24.0, "Nombre": "24 - MORLANS", "Grupo": null, "Total docks": 15, "Latitude": 43.308504, "Longitude": -1.982912, "Unnamed: 6": null }, "geometry": { "type": "Point", "coordinates": [ -1.982912, 43.308504 ] } },
{ "type": "Feature", "properties": { "ID": 25.0, "Nombre": "25 - CORTÁZAR ARKITEKTOAK / ARQUITECTOS", "Grupo": null, "Total docks": 15, "Latitude": 43.307924, "Longitude": -1.979177, "Unnamed: 6": null }, "geometry": { "type": "Point", "coordinates": [ -1.979177, 43.307924 ] } },
{ "type": "Feature", "properties": { "ID": 26.0, "Nombre": "26 - JAVIER BARKAIZTEGI", "Grupo": null, "Total docks": 19, "Latitude": 43.305942, "Longitude": -1.980475, "Unnamed: 6": null }, "geometry": { "type": "Point", "coordinates": [ -1.980475, 43.305942 ] } },
{ "type": "Feature", "properties": { "ID": 27.0, "Nombre": "27 - PODAVINES", "Grupo": null, "Total docks": 19, "Latitude": 43.302698, "Longitude": -1.979894, "Unnamed: 6": null }, "geometry": { "type": "Point", "coordinates": [ -1.979894, 43.302698 ] } },
{ "type": "Feature", "properties": { "ID": 28.0, "Nombre": "28 - ISABEL II", "Grupo": null, "Total docks": 20, "Latitude": 43.304339, "Longitude": -1.976113, "Unnamed: 6": null }, "geometry": { "type": "Point", "coordinates": [ -1.976113, 43.304339 ] } },
{ "type": "Feature", "properties": { "ID": 29.0, "Nombre": "29 - EUSKAL KORTSARIOAK / CORSARIOS VASCOS", "Grupo": null, "Total docks": 19, "Latitude": 43.306114, "Longitude": -1.972965, "Unnamed: 6": null }, "geometry": { "type": "Point", "coordinates": [ -1.972965, 43.306114 ] } },
{ "type": "Feature", "properties": { "ID": 30.0, "Nombre": "30 - HUMBOLDT", "Grupo": null, "Total docks": 20, "Latitude": 43.310072, "Longitude": -1.971489, "Unnamed: 6": null }, "geometry": { "type": "Point", "coordinates": [ -1.971489, 43.310072 ] } },
{ "type": "Feature", "properties": { "ID": 31.0, "Nombre": "31 - BARCELONA", "Grupo": null, "Total docks": 19, "Latitude": 43.312049, "Longitude": -1.972104, "Unnamed: 6": null }, "geometry": { "type": "Point", "coordinates": [ -1.972104, 43.312049 ] } },
{ "type": "Feature", "properties": { "ID": 32.0, "Nombre": "32 - URBIA", "Grupo": null, "Total docks": 15, "Latitude": 43.310841, "Longitude": -1.967488, "Unnamed: 6": null }, "geometry": { "type": "Point", "coordinates": [ -1.967488, 43.310841 ] } },
{ "type": "Feature", "properties": { "ID": 33.0, "Nombre": "33 - ANTZIETA", "Grupo": "Promotional", "Total docks": 19, "Latitude": 43.304361, "Longitude": -1.962056, "Unnamed: 6": null }, "geometry": { "type": "Point", "coordinates": [ -1.962056, 43.304361 ] } },
{ "type": "Feature", "properties": { "ID": 34.0, "Nombre": "34 - TRANBIA", "Grupo": "Promotional", "Total docks": 19, "Latitude": 43.296056, "Longitude": -1.954125, "Unnamed: 6": null }, "geometry": { "type": "Point", "coordinates": [ -1.954125, 43.296056 ] } },
{ "type": "Feature", "properties": { "ID": 35.0, "Nombre": "35 - MUNTO", "Grupo": "Promotional", "Total docks": 19, "Latitude": 43.306917, "Longitude": -1.993368, "Unnamed: 6": null }, "geometry": { "type": "Point", "coordinates": [ -1.993368, 43.306917 ] } },
{ "type": "Feature", "properties": { "ID": 36.0, "Nombre": "36 - ERRONDOGAINA / ALTO DE ERRONDO", "Grupo": "Promotional", "Total docks": 20, "Latitude": 43.300719, "Longitude": -1.988138, "Unnamed: 6": null }, "geometry": { "type": "Point", "coordinates": [ -1.988138, 43.300719 ] } },
{ "type": "Feature", "properties": { "ID": 37.0, "Nombre": "37 - ANDOAIN", "Grupo": "Promotional", "Total docks": 23, "Latitude": 43.299026, "Longitude": -1.991666, "Unnamed: 6": null }, "geometry": { "type": "Point", "coordinates": [ -1.991666, 43.299026 ] } },
{ "type": "Feature", "properties": { "ID": 38.0, "Nombre": "38 - KRISTINA INFANTA", "Grupo": null, "Total docks": 15, "Latitude": 43.314502, "Longitude": -2.00431, "Unnamed: 6": null }, "geometry": { "type": "Point", "coordinates": [ -2.00431, 43.314502 ] } },
{ "type": "Feature", "properties": { "ID": 39.0, "Nombre": "39 - ZARAUTZ", "Grupo": null, "Total docks": 15, "Latitude": 43.312508, "Longitude": -2.005926, "Unnamed: 6": null }, "geometry": { "type": "Point", "coordinates": [ -2.005926, 43.312508 ] } },
{ "type": "Feature", "properties": { "ID": 40.0, "Nombre": "40 - TOLOSA HIRIB.-IRAKASLE ESKOLA/MAGISTERIO", "Grupo": null, "Total docks": 24, "Latitude": 43.311667, "Longitude": -2.008883, "Unnamed: 6": null }, "geometry": { "type": "Point", "coordinates": [ -2.008883, 43.311667 ] } },
{ "type": "Feature", "properties": { "ID": 41.0, "Nombre": "41 - TOLOSA HIRIBIDEA-KARLOS SANTAMARIA", "Grupo": null, "Total docks": 25, "Latitude": 43.30916, "Longitude": -2.010537, "Unnamed: 6": null }, "geometry": { "type": "Point", "coordinates": [ -2.010537, 43.30916 ] } },
{ "type": "Feature", "properties": { "ID": 42.0, "Nombre": "42 - BERIO 26", "Grupo": "Promotional", "Total docks": 19, "Latitude": 43.306641, "Longitude": -2.016588, "Unnamed: 6": null }, "geometry": { "type": "Point", "coordinates": [ -2.016588, 43.306641 ] } },
{ "type": "Feature", "properties": { "ID": 43.0, "Nombre": "43 - TOLOSA HIRIBIDEA-PSIKOLOGIA", "Grupo": null, "Total docks": 17, "Latitude": 43.306743, "Longitude": -2.008338, "Unnamed: 6": null }, "geometry": { "type": "Point", "coordinates": [ -2.008338, 43.306743 ] } },
{ "type": "Feature", "properties": { "ID": 44.0, "Nombre": "44 - BERNARDO ESTORNES", "Grupo": null, "Total docks": 17, "Latitude": 43.303256, "Longitude": -2.007654, "Unnamed: 6": null }, "geometry": { "type": "Point", "coordinates": [ -2.007654, 43.303256 ] } },
{ "type": "Feature", "properties": { "ID": 45.0, "Nombre": "45 - XABIER LIZARDI", "Grupo": null, "Total docks": 15, "Latitude": 43.301378, "Longitude": -2.004624, "Unnamed: 6": null }, "geometry": { "type": "Point", "coordinates": [ -2.004624, 43.301378 ] } },
{ "type": "Feature", "properties": { "ID": 46.0, "Nombre": "46 - TOLOSA HIRIBIDEA-AMERIKA", "Grupo": null, "Total docks": 15, "Latitude": 43.302069, "Longitude": -2.003352, "Unnamed: 6": null }, "geometry": { "type": "Point", "coordinates": [ -2.003352, 43.302069 ] } },
{ "type": "Feature", "properties": { "ID": 47.0, "Nombre": "47 - HERRERA", "Grupo": "Promotional", "Total docks": 19, "Latitude": 43.319832, "Longitude": -1.9384473, "Unnamed: 6": null }, "geometry": { "type": "Point", "coordinates": [ -1.9384473, 43.319832 ] } },
{ "type": "Feature", "properties": { "ID": 48.0, "Nombre": "48 - LARRATXO", "Grupo": "Promotional", "Total docks": 15, "Latitude": 43.313163, "Longitude": -1.939204, "Unnamed: 6": null }, "geometry": { "type": "Point", "coordinates": [ -1.939204, 43.313163 ] } },
{ "type": "Feature", "properties": { "ID": 49.0, "Nombre": "49- ALTZA KIROLDEGIA", "Grupo": "Promotional", "Total docks": 15, "Latitude": 43.318728, "Longitude": -1.92803, "Unnamed: 6": null }, "geometry": { "type": "Point", "coordinates": [ -1.92803, 43.318728 ] } },
{ "type": "Feature", "properties": { "ID": 50.0, "Nombre": "50- HARROBIETA PLAZATXOA", "Grupo": "Promotional", "Total docks": 19, "Latitude": 43.317758, "Longitude": -1.933879, "Unnamed: 6": null }, "geometry": { "type": "Point", "coordinates": [ -1.933879, 43.317758 ] } },
{ "type": "Feature", "properties": { "ID": 51.0, "Nombre": "51 - JULIO URKIXO 44", "Grupo": "Promotional", "Total docks": 19, "Latitude": 43.323695, "Longitude": -1.94302, "Unnamed: 6": null }, "geometry": { "type": "Point", "coordinates": [ -1.94302, 43.323695 ] } },
{ "type": "Feature", "properties": { "ID": 52.0, "Nombre": "52 - AÑORGA TXIKI", "Grupo": "Promotional", "Total docks": 19, "Latitude": 43.289259, "Longitude": -1997852.0, "Unnamed: 6": null }, "geometry": { "type": "Point", "coordinates": [ -1997852.0, 43.289259 ] } },
{ "type": "Feature", "properties": { "ID": 53.0, "Nombre": "53 - TXAPARRENE 26", "Grupo": "Promotional", "Total docks": 19, "Latitude": 43.320182, "Longitude": -1.951833, "Unnamed: 6": null }, "geometry": { "type": "Point", "coordinates": [ -1.951833, 43.320182 ] } },
{ "type": "Feature", "properties": { "ID": 54.0, "Nombre": "54 - BERIO 42", "Grupo": "Promotional", "Total docks": 15, "Latitude": 43.305158, "Longitude": -2.016997, "Unnamed: 6": null }, "geometry": { "type": "Point", "coordinates": [ -2.016997, 43.305158 ] } },
{ "type": "Feature", "properties": { "ID": 55.0, "Nombre": "55- BERA BERA", "Grupo": "Promotional", "Total docks": 15, "Latitude": 43.301937, "Longitude": -1.993655, "Unnamed: 6": null }, "geometry": { "type": "Point", "coordinates": [ -1.993655, 43.301937 ] } },
{ "type": "Feature", "properties": { "ID": 56.0, "Nombre": "56 - ALTZA SAN MARTZIAL PLAZA", "Grupo": "Promotional", "Total docks": 15, "Latitude": 43.314205, "Longitude": -1.93476, "Unnamed: 6": null }, "geometry": { "type": "Point", "coordinates": [ -1.93476, 43.314205 ] } },
{ "type": "Feature", "properties": { "ID": 57.0, "Nombre": "57 - PAGOLA-LUGARITZ", "Grupo": "Promotional", "Total docks": 19, "Latitude": 43.302416, "Longitude": -1.998749, "Unnamed: 6": null }, "geometry": { "type": "Point", "coordinates": [ -1.998749, 43.302416 ] } },
{ "type": "Feature", "properties": { "ID": 58.0, "Nombre": "58 - NORNAHI PLAZATXOA", "Grupo": "Promotional", "Total docks": 0, "Latitude": 43.322313, "Longitude": -1.939116, "Unnamed: 6": null }, "geometry": { "type": "Point", "coordinates": [ -1.939116, 43.322313 ] } },
{ "type": "Feature", "properties": { "ID": 59.0, "Nombre": "59 - BUENAVISTA", "Grupo": "Promotional", "Total docks": 19, "Latitude": 43.321211, "Longitude": -1.922239, "Unnamed: 6": null }, "geometry": { "type": "Point", "coordinates": [ -1.922239, 43.321211 ] } },
{ "type": "Feature", "properties": { "ID": 60.0, "Nombre": "60 - ERREGEZAINTZA 28/ ESCOLTA REAL 28", "Grupo": null, "Total docks": 15, "Latitude": 43.31239, "Longitude": -2.001045, "Unnamed: 6": null }, "geometry": { "type": "Point", "coordinates": [ -2.001045, 43.31239 ] } },
{ "type": "Feature", "properties": { "ID": 61.0, "Nombre": "61 – SATRUSTEGI 1", "Grupo": null, "Total docks": 0, "Latitude": 43.315243, "Longitude": -2.000771, "Unnamed: 6": null }, "geometry": { "type": "Point", "coordinates": [ -2.000771, 43.315243 ] } },
{ "type": "Feature", "properties": { "ID": 62.0, "Nombre": "62 - PIO BAROJA 20", "Grupo": "Promotional", "Total docks": 15, "Latitude": 43.310815, "Longitude": -1.995429, "Unnamed: 6": null }, "geometry": { "type": "Point", "coordinates": [ -1.995429, 43.310815 ] } },
{ "type": "Feature", "properties": { "ID": 63.0, "Nombre": "63 - SERT PLAZA", "Grupo": null, "Total docks": 15, "Latitude": 43.31068, "Longitude": -2.006141, "Unnamed: 6": null }, "geometry": { "type": "Point", "coordinates": [ -2.006141, 43.31068 ] } },
{ "type": "Feature", "properties": { "ID": 64.0, "Nombre": "64 - AMETZAGAÑA 47", "Grupo": "Promotional", "Total docks": 19, "Latitude": 43.31787, "Longitude": -1.967836, "Unnamed: 6": null }, "geometry": { "type": "Point", "coordinates": [ -1.967836, 43.31787 ] } },
{ "type": "Feature", "properties": { "ID": 65.0, "Nombre": "65 - OLAETA / FERRERÍAS", "Grupo": null, "Total docks": 19, "Latitude": 43.302869, "Longitude": -1.975384, "Unnamed: 6": null }, "geometry": { "type": "Point", "coordinates": [ -1.975384, 43.302869 ] } },
{ "type": "Feature", "properties": { "ID": 66.0, "Nombre": "66 - ZUHAIZTI PLAZA", "Grupo": null, "Total docks": 19, "Latitude": 43.321181, "Longitude": -1.974655, "Unnamed: 6": null }, "geometry": { "type": "Point", "coordinates": [ -1.974655, 43.321181 ] } },
{ "type": "Feature", "properties": { "ID": 67.0, "Nombre": "67 - MORAZA 1", "Grupo": null, "Total docks": 19, "Latitude": 43.314847, "Longitude": -1.979881, "Unnamed: 6": null }, "geometry": { "type": "Point", "coordinates": [ -1.979881, 43.314847 ] } },
{ "type": "Feature", "properties": { "ID": 68.0, "Nombre": "68 - ZABALETA 35 ", "Grupo": null, "Total docks": 19, "Latitude": 43.324364, "Longitude": -1.974429, "Unnamed: 6": null }, "geometry": { "type": "Point", "coordinates": [ -1.974429, 43.324364 ] } },
{ "type": "Feature", "properties": { "ID": 70.0, "Nombre": "70 - TXAPILLO", "Grupo": "Promotional", "Total docks": 15, "Latitude": 43.300167, "Longitude": -1.984954, "Unnamed: 6": null }, "geometry": { "type": "Point", "coordinates": [ -1.984954, 43.300167 ] } }
]
}
