{
"type": "FeatureCollection",
"crs": { "type": "name", "properties": { "name": "urn:ogc:def:crs:OGC:1.3:CRS84" } },
"features": [
{ "type": "Feature", "properties": { "N de registro": "HSS00001", "Nombre comercial": "DE LONDRES Y DE INGLATERRA", "Razon Social": "SUCESORES DE URBISTONDO, S.L.", "Municipio": "Donostia / San Sebastian", "Localidad": "Donostia / San Sebastian", "Direccion": "Zubieta", "Numero": "2", "Escalera": "", "Piso": "", "Letra": "", "ETRS89 (X)": 582308.8139, "ETRS89 (Y)": 4796636.499, "Web": "http://www.hlondres.com" }, "geometry": { "type": "Point", "coordinates": [ -1.9849311, 43.31806422 ] } },
{ "type": "Feature", "properties": { "N de registro": "HSS00002", "Nombre comercial": "MARIA CRISTINA", "Razon Social": "CIGAHOTELES ESPANA, S.L.U. - HOTEL M CRISTINA", "Municipio": "Donostia / San Sebastian", "Localidad": "Donostia / San Sebastian", "Direccion": "Republica Argentina", "Numero": "4", "Escalera": "", "Piso": "", "Letra": "", "ETRS89 (X)": 582701.2831, "ETRS89 (Y)": 4797052.154, "Web": "www.luxurycollection.com" }, "geometry": { "type": "Point", "coordinates": [ -1.980029143, 43.32176337 ] } },
{ "type": "Feature", "properties": { "N de registro": "HSS00003", "Nombre comercial": "NIZA", "Razon Social": "EXPLOTACIONES FINANCIERAS S.A.", "Municipio": "Donostia / San Sebastian", "Localidad": "Donostia / San Sebastian", "Direccion": "Zubieta", "Numero": "56", "Escalera": "", "Piso": "", "Letra": "", "ETRS89 (X)": 582079.3073, "ETRS89 (Y)": 4796364.104, "Web": "www.hotelniza.com" }, "geometry": { "type": "Point", "coordinates": [ -1.987801755, 43.31563688 ] } },
{ "type": "Feature", "properties": { "N de registro": "HSS00006", "Nombre comercial": "SAN SEBASTIAN ORLY AFFILIATED BY MELIA", "Razon Social": "MELIA HOTELS INTERNATIONAL S.A., ORGANIZATIONIDENTIFIER=VATES-A78304516, SERIALNUMBER=IDCES-43070810K", "Municipio": "Donostia / San Sebastian", "Localidad": "Donostia / San Sebastian", "Direccion": "Zaragoza", "Numero": "4", "Escalera": "", "Piso": "", "Letra": "", "ETRS89 (X)": 582237.9986, "ETRS89 (Y)": 4796465.043, "Web": "http://www.tryphotels.com/en/tryp-orly-hotel-san-sebastian-spain.html" }, "geometry": { "type": "Point", "coordinates": [ -1.985829967, 43.31652832 ] } },
{ "type": "Feature", "properties": { "N de registro": "HSS00014", "Nombre comercial": "SERCOTEL CODINA", "Razon Social": "INVERSIONES NARON 2003 SL", "Municipio": "Donostia / San Sebastian", "Localidad": "Donostia / San Sebastian", "Direccion": "Zumalakarregi", "Numero": "21", "Escalera": "", "Piso": "", "Letra": "", "ETRS89 (X)": 580733.2722, "ETRS89 (Y)": 4796111.555, "Web": "www.hotelcodina.es" }, "geometry": { "type": "Point", "coordinates": [ -2.004435639, 43.31350881 ] } },
{ "type": "Feature", "properties": { "N de registro": "HSS00025", "Nombre comercial": "BIDASOA", "Razon Social": "BAR RTE. PENSION BIDASOA, S.L.", "Municipio": "Irun", "Localidad": "Irun", "Direccion": "Estacion", "Numero": "14", "Escalera": "    ", "Piso": "1", "Letra": "", "ETRS89 (X)": 597353.464, "ETRS89 (Y)": 4799386.219, "Web": "" }, "geometry": { "type": "Point", "coordinates": [ -1.798942955, 43.34102197 ] } },
{ "type": "Feature", "properties": { "N de registro": "HSS00027", "Nombre comercial": "ALCAZAR", "Razon Social": "AITAMA, S.L.", "Municipio": "Irun", "Localidad": "Irun", "Direccion": "Iparralde", "Numero": "11", "Escalera": "", "Piso": "", "Letra": "", "ETRS89 (X)": 598040.2274, "ETRS89 (Y)": 4799436.159, "Web": "www.hotelalcazar.net" }, "geometry": { "type": "Point", "coordinates": [ -1.790463224, 43.34138227 ] } },
{ "type": "Feature", "properties": { "N de registro": "HSS00037", "Nombre comercial": "LIZASO", "Razon Social": "HOSTAL LIZASO C.B", "Municipio": "Irun", "Localidad": "Irun", "Direccion": "Aduana", "Numero": "5", "Escalera": "", "Piso": "BAJO", "Letra": "", "ETRS89 (X)": 597498.698, "ETRS89 (Y)": 4799316.253, "Web": "" }, "geometry": { "type": "Point", "coordinates": [ -1.797164015, 43.34037327 ] } },
{ "type": "Feature", "properties": { "N de registro": "HSS00044", "Nombre comercial": "BERGARA", "Razon Social": "", "Municipio": "Bergara", "Localidad": "Bergara", "Direccion": "Bidekurutzeta", "Numero": "34", "Escalera": "", "Piso": "BAJO", "Letra": "", "ETRS89 (X)": 547675.971, "ETRS89 (Y)": 4773811.464, "Web": "" }, "geometry": { "type": "Point", "coordinates": [ -2.413980212, 43.11553437 ] } },
{ "type": "Feature", "properties": { "N de registro": "HSS00052", "Nombre comercial": "BAHIA", "Razon Social": "HOSTAL BAHIA, S.L.", "Municipio": "Donostia / San Sebastian", "Localidad": "Donostia / San Sebastian", "Direccion": "San Martin", "Numero": "54", "Escalera": "BIS", "Piso": "1", "Letra": "", "ETRS89 (X)": 582268.8463, "ETRS89 (Y)": 4796434.34, "Web": "" }, "geometry": { "type": "Point", "coordinates": [ -1.985454207, 43.31624852 ] } },
{ "type": "Feature", "properties": { "N de registro": "HSS00055", "Nombre comercial": "ALEMANA", "Razon Social": "NUEVA PENSION ALEMANA SL", "Municipio": "Donostia / San Sebastian", "Localidad": "Donostia / San Sebastian", "Direccion": "San Martin", "Numero": "53", "Escalera": "", "Piso": "1", "Letra": "IZDA", "ETRS89 (X)": 582164.4126, "ETRS89 (Y)": 4796358.075, "Web": "www.hostalalemana.com" }, "geometry": { "type": "Point", "coordinates": [ -1.986753302, 43.31557331 ] } },
{ "type": "Feature", "properties": { "N de registro": "HSS00061", "Nombre comercial": "OYARBIDE", "Razon Social": "", "Municipio": "Tolosa", "Localidad": "Tolosa", "Direccion": "Felipe Gorriti", "Numero": "1", "Escalera": "", "Piso": "1", "Letra": "", "ETRS89 (X)": 575464.4333, "ETRS89 (Y)": 4776801.926, "Web": "" }, "geometry": { "type": "Point", "coordinates": [ -2.072040975, 43.14020072 ] } },
{ "type": "Feature", "properties": { "N de registro": "HSS00065", "Nombre comercial": "SANTUARIO DE ARANZAZU", "Razon Social": "GDR ARANZAZU SL", "Municipio": "Onati", "Localidad": "Arantzazu", "Direccion": "Arantzazu", "Numero": "8", "Escalera": "", "Piso": "", "Letra": "", "ETRS89 (X)": 549096.2434, "ETRS89 (Y)": 4758670.206, "Web": "www.hsarantzazu.com" }, "geometry": { "type": "Point", "coordinates": [ -2.397858639, 42.97910392 ] } },
{ "type": "Feature", "properties": { "N de registro": "HSS00069", "Nombre comercial": "TERMINUS", "Razon Social": "HOTELNOR, S.A.", "Municipio": "Donostia / San Sebastian", "Localidad": "Donostia / San Sebastian", "Direccion": "Francia", "Numero": "21", "Escalera": "", "Piso": "", "Letra": "", "ETRS89 (X)": 582960.1531, "ETRS89 (Y)": 4796666.802, "Web": "http://www.hotelterminus.org" }, "geometry": { "type": "Point", "coordinates": [ -1.976895169, 43.31826548 ] } },
{ "type": "Feature", "properties": { "N de registro": "HSS00075", "Nombre comercial": "GUDAMENDI", "Razon Social": "HOTEL GUDAMENDI PARK, S.L.", "Municipio": "Donostia / San Sebastian", "Localidad": "Igeldo | Diseminado", "Direccion": "Gudamendi", "Numero": "26", "Escalera": "", "Piso": "", "Letra": "", "ETRS89 (X)": 579214.8906, "ETRS89 (Y)": 4796088.2, "Web": "www.hotelgudamendi.com" }, "geometry": { "type": "Point", "coordinates": [ -2.02316027, 43.31345996 ] } },
{ "type": "Feature", "properties": { "N de registro": "HSS00078", "Nombre comercial": "ZARAUZ", "Razon Social": "IRAUN VAL, S.L.", "Municipio": "Zarautz", "Localidad": "Zarautz", "Direccion": "Nafarroa", "Numero": "26", "Escalera": "", "Piso": "", "Letra": "", "ETRS89 (X)": 567511.1021, "ETRS89 (Y)": 4792888.441, "Web": "www.hotelzarauz.com" }, "geometry": { "type": "Point", "coordinates": [ -2.167862496, 43.28579189 ] } },
{ "type": "Feature", "properties": { "N de registro": "HSS00099", "Nombre comercial": "GRAN HOTEL BALNEARIO DE CESTONA", "Razon Social": "TRES MARES, S.A.", "Municipio": "Zestoa", "Localidad": "Zestoa", "Direccion": "Bainuetxeko errepidea", "Numero": "12", "Escalera": "", "Piso": "", "Letra": "", "ETRS89 (X)": 560282.5558, "ETRS89 (Y)": 4786916.647, "Web": "www.relaistermal.com" }, "geometry": { "type": "Point", "coordinates": [ -2.2576069, 43.23263577 ] } },
{ "type": "Feature", "properties": { "N de registro": "HSS00113", "Nombre comercial": "AVENIDA", "Razon Social": "ALMALAR, S.L.", "Municipio": "Donostia / San Sebastian", "Localidad": "Donostia / San Sebastian", "Direccion": "Igeldo", "Numero": "55", "Escalera": "", "Piso": "", "Letra": "", "ETRS89 (X)": 580203.2623, "ETRS89 (Y)": 4796040.86, "Web": "www.hotelavenida.net" }, "geometry": { "type": "Point", "coordinates": [ -2.010980833, 43.31292901 ] } },
{ "type": "Feature", "properties": { "N de registro": "HSS00118", "Nombre comercial": "GURUTZE BERRI", "Razon Social": "GURUTZE BERRI, S.L.", "Municipio": "Oiartzun", "Localidad": "Gurutze", "Direccion": "Bizardia", "Numero": "7", "Escalera": "", "Piso": "", "Letra": "", "ETRS89 (X)": 593791.5973, "ETRS89 (Y)": 4795792.51, "Web": "www.gurutzeberri.com" }, "geometry": { "type": "Point", "coordinates": [ -1.843491009, 43.30912172 ] } },
{ "type": "Feature", "properties": { "N de registro": "HSS00119", "Nombre comercial": "CASTILLO", "Razon Social": "PEVIALDE, S.L.", "Municipio": "Olaberria", "Localidad": "Ihurre | Diseminado", "Direccion": "Basozabal", "Numero": "4", "Escalera": "", "Piso": "", "Letra": "", "ETRS89 (X)": 563881.3968, "ETRS89 (Y)": 4765721.811, "Web": "" }, "geometry": { "type": "Point", "coordinates": [ -2.215733177, 43.04150071 ] } },
{ "type": "Feature", "properties": { "N de registro": "HSS00191", "Nombre comercial": "URUMEA", "Razon Social": "", "Municipio": "Donostia / San Sebastian", "Localidad": "Donostia / San Sebastian", "Direccion": "Getaria", "Numero": "14", "Escalera": "", "Piso": "1", "Letra": "", "ETRS89 (X)": 582650.5876, "ETRS89 (Y)": 4796638.938, "Web": "" }, "geometry": { "type": "Point", "coordinates": [ -1.980716481, 43.3180487 ] } },
{ "type": "Feature", "properties": { "N de registro": "HSS00196", "Nombre comercial": "LA PERLA", "Razon Social": "", "Municipio": "Donostia / San Sebastian", "Localidad": "Donostia / San Sebastian", "Direccion": "Loiola", "Numero": "10", "Escalera": "", "Piso": "1", "Letra": "IZDA", "ETRS89 (X)": 582511.7606, "ETRS89 (Y)": 4796601.506, "Web": "www.pensionlaperla.com" }, "geometry": { "type": "Point", "coordinates": [ -1.982433916, 43.31772693 ] } },
{ "type": "Feature", "properties": { "N de registro": "HSS00233", "Nombre comercial": "SINDIKA", "Razon Social": "SINDIKA OTXOA, S.L.", "Municipio": "Onati", "Localidad": "Arantzazu", "Direccion": "Arantzazu", "Numero": "11", "Escalera": "", "Piso": "", "Letra": "", "ETRS89 (X)": 549155.9434, "ETRS89 (Y)": 4758565.718, "Web": "" }, "geometry": { "type": "Point", "coordinates": [ -2.397135681, 42.97815919 ] } },
{ "type": "Feature", "properties": { "N de registro": "HSS00236", "Nombre comercial": "GOIKO-BENTA", "Razon Social": "GOIKOBENTA S.L", "Municipio": "Onati", "Localidad": "Arantzazu", "Direccion": "Arantzazu", "Numero": "12-A", "Escalera": "", "Piso": "BAJO", "Letra": "", "ETRS89 (X)": 549091.3866, "ETRS89 (Y)": 4758720.616, "Web": "" }, "geometry": { "type": "Point", "coordinates": [ -2.397913773, 42.97955816 ] } },
{ "type": "Feature", "properties": { "N de registro": "HSS00268", "Nombre comercial": "ONGUI ETORRI", "Razon Social": "", "Municipio": "Idiazabal", "Localidad": "Ursuaran | Diseminado", "Direccion": "Ursuaran", "Numero": "24", "Escalera": "", "Piso": "1", "Letra": "", "ETRS89 (X)": 563030.434, "ETRS89 (Y)": 4755448.692, "Web": "" }, "geometry": { "type": "Point", "coordinates": [ -2.227339264, 42.94906982 ] } },
{ "type": "Feature", "properties": { "N de registro": "HSS00270", "Nombre comercial": "GEMA", "Razon Social": "", "Municipio": "Irun", "Localidad": "Irun", "Direccion": "Estacion", "Numero": "5", "Escalera": "", "Piso": "2", "Letra": "IZDA", "ETRS89 (X)": 597387.2637, "ETRS89 (Y)": 4799385.659, "Web": "" }, "geometry": { "type": "Point", "coordinates": [ -1.798526155, 43.34101255 ] } },
{ "type": "Feature", "properties": { "N de registro": "HSS00309", "Nombre comercial": "AZKUE", "Razon Social": "JUANA AZCUE ILLARRAMENDI Y OTRA, C.B.", "Municipio": "Getaria", "Localidad": "Meaga | Diseminado", "Direccion": "Meaga", "Numero": "2", "Escalera": "", "Piso": "", "Letra": "", "ETRS89 (X)": 564145.0989, "ETRS89 (Y)": 4792376.116, "Web": "www.hotelazkue.com" }, "geometry": { "type": "Point", "coordinates": [ -2.209407396, 43.28147331 ] } },
{ "type": "Feature", "properties": { "N de registro": "HSS00313", "Nombre comercial": "SAN SEBASTIAN", "Razon Social": "HOTEL SAN SEBASTIAN, S.A.", "Municipio": "Donostia / San Sebastian", "Localidad": "Donostia / San Sebastian", "Direccion": "Zumalakarregi", "Numero": "20", "Escalera": "", "Piso": "", "Letra": "", "ETRS89 (X)": 580747.9827000001, "ETRS89 (Y)": 4796174.273, "Web": "www.aranzazu-hoteles.com" }, "geometry": { "type": "Point", "coordinates": [ -2.004245042, 43.31407188 ] } },
{ "type": "Feature", "properties": { "N de registro": "HSS00315", "Nombre comercial": "EASO", "Razon Social": "", "Municipio": "Donostia / San Sebastian", "Localidad": "Donostia / San Sebastian", "Direccion": "San Bartolome", "Numero": "24", "Escalera": "", "Piso": "1", "Letra": "", "ETRS89 (X)": 582269.2998, "ETRS89 (Y)": 4796354.356, "Web": "http://www.pensioneaso.com" }, "geometry": { "type": "Point", "coordinates": [ -1.985460596, 43.31552836 ] } },
{ "type": "Feature", "properties": { "N de registro": "HSS00336", "Nombre comercial": "ZARAGOZA", "Razon Social": "", "Municipio": "Hondarribia", "Localidad": "Alde Zaharra", "Direccion": "Jabier Ugarte", "Numero": "1", "Escalera": "", "Piso": "1", "Letra": "", "ETRS89 (X)": 597963.7059, "ETRS89 (Y)": 4801950.147, "Web": "" }, "geometry": { "type": "Point", "coordinates": [ -1.790957813, 43.3640245 ] } },
{ "type": "Feature", "properties": { "N de registro": "HSS00345", "Nombre comercial": "MONTE IGUELDO", "Razon Social": "HOTEL MONTE IGUELDO, S.A.", "Municipio": "Donostia / San Sebastian", "Localidad": "Donostia / San Sebastian", "Direccion": "Faro", "Numero": "134", "Escalera": "", "Piso": "", "Letra": "", "ETRS89 (X)": 580301.7671000001, "ETRS89 (Y)": 4797023.47, "Web": "http://www.monteigueldo.com" }, "geometry": { "type": "Point", "coordinates": [ -2.009622626, 43.32176518 ] } },
{ "type": "Feature", "properties": { "N de registro": "HSS00347", "Nombre comercial": "JOSE MARI", "Razon Social": "", "Municipio": "Lizartza", "Localidad": "Lizartza", "Direccion": "Kale Nagusia", "Numero": "24", "Escalera": "", "Piso": "BAJO", "Letra": "", "ETRS89 (X)": 578436.1119, "ETRS89 (Y)": 4772489.764, "Web": "" }, "geometry": { "type": "Point", "coordinates": [ -2.036113998, 43.10107347 ] } },
{ "type": "Feature", "properties": { "N de registro": "HSS00361", "Nombre comercial": "PARMA", "Razon Social": "PARMA OSTATUA, S.L.", "Municipio": "Donostia / San Sebastian", "Localidad": "Donostia / San Sebastian", "Direccion": "General Jauregi", "Numero": "11", "Escalera": "", "Piso": "", "Letra": "", "ETRS89 (X)": 582510.3423, "ETRS89 (Y)": 4797397.304, "Web": "www.hotelparma.com" }, "geometry": { "type": "Point", "coordinates": [ -1.982331815, 43.32489178 ] } },
{ "type": "Feature", "properties": { "N de registro": "HSS00369", "Nombre comercial": "PARADOR EL EMPERADOR", "Razon Social": "PARADORES DE TURISMO DE ESPANA S.A.", "Municipio": "Hondarribia", "Localidad": "Alde Zaharra", "Direccion": "Arma plaza", "Numero": "14", "Escalera": "", "Piso": "", "Letra": "", "ETRS89 (X)": 597932.9077, "ETRS89 (Y)": 4801894.198, "Web": "web.parador.es" }, "geometry": { "type": "Point", "coordinates": [ -1.791347834, 43.36352484 ] } },
{ "type": "Feature", "properties": { "N de registro": "HSS00375", "Nombre comercial": "IZKINA", "Razon Social": "", "Municipio": "Alegia", "Localidad": "Alegia", "Direccion": "San Juan", "Numero": "59", "Escalera": "", "Piso": "2", "Letra": "", "ETRS89 (X)": 573403.2113, "ETRS89 (Y)": 4772378.886, "Web": "" }, "geometry": { "type": "Point", "coordinates": [ -2.09796922, 43.10057938 ] } },
{ "type": "Feature", "properties": { "N de registro": "HSS00406", "Nombre comercial": "UNZAGA PLAZA", "Razon Social": "HEYBAR HOTEL&RESORTS, S.L.", "Municipio": "Eibar", "Localidad": "Eibar", "Direccion": "Ego-Gain", "Numero": "5", "Escalera": "", "Piso": "", "Letra": "", "ETRS89 (X)": 542690.08, "ETRS89 (Y)": 4781382.373, "Web": "http://www.hotelunzagaplaza.com/" }, "geometry": { "type": "Point", "coordinates": [ -2.474679211, 43.18400387 ] } },
{ "type": "Feature", "properties": { "N de registro": "HSS00410", "Nombre comercial": "GETARIANO", "Razon Social": "", "Municipio": "Getaria", "Localidad": "Getaria", "Direccion": "Herrerieta", "Numero": "3", "Escalera": "", "Piso": "BAJO", "Letra": "", "ETRS89 (X)": 564473.2506, "ETRS89 (Y)": 4794752.662, "Web": "" }, "geometry": { "type": "Point", "coordinates": [ -2.205084631, 43.30284314 ] } },
{ "type": "Feature", "properties": { "N de registro": "HSS00411", "Nombre comercial": "BUENA VISTA", "Razon Social": "INPARTECHE SL", "Municipio": "Donostia / San Sebastian", "Localidad": "Igeldo", "Direccion": "Cristobal Balenciaga", "Numero": "42", "Escalera": "", "Piso": "BAJO", "Letra": "", "ETRS89 (X)": 579211.617, "ETRS89 (Y)": 4796392.788, "Web": "http://www.pensionbuenavista.com" }, "geometry": { "type": "Point", "coordinates": [ -2.023156705, 43.3162026 ] } },
{ "type": "Feature", "properties": { "N de registro": "HSS00412", "Nombre comercial": "TXARTEL", "Razon Social": "HOTEL TXARTEL, S.L.", "Municipio": "Lasarte-Oria", "Localidad": "Oztaran", "Direccion": "Zirkuitu", "Numero": "1", "Escalera": "", "Piso": "", "Letra": "", "ETRS89 (X)": 579768.5001, "ETRS89 (Y)": 4790158.907, "Web": "www.hoteltxartel.com" }, "geometry": { "type": "Point", "coordinates": [ -2.017194307, 43.2600182 ] } },
{ "type": "Feature", "properties": { "N de registro": "HSS00415", "Nombre comercial": "B&B DONOSTIA SAN SEBASTIAN AEROPUERTO", "Razon Social": "W E I ALICANTE SL", "Municipio": "Oiartzun", "Localidad": "Arragua | Diseminado", "Direccion": "Lintzirin", "Numero": "7", "Escalera": "", "Piso": "", "Letra": "", "ETRS89 (X)": 590974.3304, "ETRS89 (Y)": 4796193.829, "Web": "www.sidorme.com" }, "geometry": { "type": "Point", "coordinates": [ -1.878156573, 43.31308068 ] } },
{ "type": "Feature", "properties": { "N de registro": "HSS00421", "Nombre comercial": "LEKU EDER", "Razon Social": "", "Municipio": "Donostia / San Sebastian", "Localidad": "Igeldo", "Direccion": "Cristobal Balenciaga", "Numero": "2", "Escalera": "", "Piso": "", "Letra": "", "ETRS89 (X)": 579768.5661000001, "ETRS89 (Y)": 4796628.16, "Web": "www.lekueder.com" }, "geometry": { "type": "Point", "coordinates": [ -2.016255172, 43.31826285 ] } },
{ "type": "Feature", "properties": { "N de registro": "HSS00422", "Nombre comercial": "ANZIZAR", "Razon Social": "", "Municipio": "Hernani", "Localidad": "Hernani", "Direccion": "Kale Nagusia", "Numero": "7", "Escalera": "", "Piso": "1", "Letra": "", "ETRS89 (X)": 583148.5624000001, "ETRS89 (Y)": 4790824.392, "Web": "" }, "geometry": { "type": "Point", "coordinates": [ -1.975455412, 43.26564437 ] } },
{ "type": "Feature", "properties": { "N de registro": "HSS00426", "Nombre comercial": "KARMENTXU", "Razon Social": "", "Municipio": "Tolosa", "Localidad": "Tolosa", "Direccion": "Korreo", "Numero": "24", "Escalera": "", "Piso": "1", "Letra": "", "ETRS89 (X)": 575397.7739, "ETRS89 (Y)": 4776576.942, "Web": "" }, "geometry": { "type": "Point", "coordinates": [ -2.072891165, 43.13818168 ] } },
{ "type": "Feature", "properties": { "N de registro": "HSS00432", "Nombre comercial": "GURE AMETZA", "Razon Social": "GEURE AMETSA, S.A.", "Municipio": "Leintz-Gatzaga", "Localidad": "Leintz-Gatzaga | Diseminado", "Direccion": "Diseminados", "Numero": "3", "Escalera": "", "Piso": "2", "Letra": "", "ETRS89 (X)": 534647.7266000001, "ETRS89 (Y)": 4758036.365, "Web": "http://www.gureametsa.es" }, "geometry": { "type": "Point", "coordinates": [ -2.575096157, 42.97419128 ] } },
{ "type": "Feature", "properties": { "N de registro": "HSS00441", "Nombre comercial": "ETXEBERRI", "Razon Social": "HOTEL ETXEBERRI, S.L.", "Municipio": "Zumarraga", "Localidad": "Zumarraga", "Direccion": "Etxeberri", "Numero": "3", "Escalera": "", "Piso": "", "Letra": "", "ETRS89 (X)": 555651.03, "ETRS89 (Y)": 4772035.216, "Web": "www.etxeberri.com" }, "geometry": { "type": "Point", "coordinates": [ -2.316137428, 43.09899654 ] } },
{ "type": "Feature", "properties": { "N de registro": "HSS00464", "Nombre comercial": "ZABALA", "Razon Social": "", "Municipio": "Bergara", "Localidad": "Bergara", "Direccion": "Ibarra", "Numero": "14", "Escalera": "", "Piso": "1", "Letra": "", "ETRS89 (X)": 546766.8914, "ETRS89 (Y)": 4772398.162, "Web": "" }, "geometry": { "type": "Point", "coordinates": [ -2.425272892, 43.10286502 ] } },
{ "type": "Feature", "properties": { "N de registro": "HSS00488", "Nombre comercial": "BARCELO COSTA VASCA", "Razon Social": "BARCELO ARRENDAMIENTOS HOTELEROS,S.L.", "Municipio": "Donostia / San Sebastian", "Localidad": "Donostia / San Sebastian", "Direccion": "Pio Baroja", "Numero": "15", "Escalera": "", "Piso": "", "Letra": "", "ETRS89 (X)": 581484.6912, "ETRS89 (Y)": 4795912.236, "Web": "www.barcelo.com" }, "geometry": { "type": "Point", "coordinates": [ -1.995200456, 43.31163327 ] } },
{ "type": "Feature", "properties": { "N de registro": "HSS00495", "Nombre comercial": "ALAI", "Razon Social": "", "Municipio": "Idiazabal", "Localidad": "Ursuaran | Diseminado", "Direccion": "Ursuaran", "Numero": "22", "Escalera": "", "Piso": "", "Letra": "", "ETRS89 (X)": 563004.8801, "ETRS89 (Y)": 4755488.004, "Web": "http://www.casaalai.com" }, "geometry": { "type": "Point", "coordinates": [ -2.227648064, 42.94942592 ] } },
{ "type": "Feature", "properties": { "N de registro": "HSS00496", "Nombre comercial": "NORTE", "Razon Social": "HAZI HOSPITALITY SL", "Municipio": "Zarautz", "Localidad": "Zarautz", "Direccion": "Amezti", "Numero": "1", "Escalera": "", "Piso": "", "Letra": "", "ETRS89 (X)": 566791.4872, "ETRS89 (Y)": 4792958.807, "Web": "www.lasonet.com/hotelnorte" }, "geometry": { "type": "Point", "coordinates": [ -2.176722975, 43.28648962 ] } },
{ "type": "Feature", "properties": { "N de registro": "HSS00499", "Nombre comercial": "IBILTZE", "Razon Social": "IBILTZE HOTELA, S.L.", "Municipio": "Lasarte-Oria", "Localidad": "Lasarte", "Direccion": "Antxota", "Numero": "3", "Escalera": "", "Piso": "", "Letra": "", "ETRS89 (X)": 579757.8382, "ETRS89 (Y)": 4791573.949, "Web": "www.hotelibiltze.com" }, "geometry": { "type": "Point", "coordinates": [ -2.017120674, 43.27275944 ] } },
{ "type": "Feature", "properties": { "N de registro": "HSS00502", "Nombre comercial": "JAUREGUI", "Razon Social": "hotel jauregui s.l.", "Municipio": "Hondarribia", "Localidad": "Portua", "Direccion": "Zuloaga", "Numero": "5", "Escalera": "", "Piso": "", "Letra": "", "ETRS89 (X)": 597737.1019, "ETRS89 (Y)": 4802386.238, "Web": "www.hoteljauregui.com" }, "geometry": { "type": "Point", "coordinates": [ -1.793676086, 43.36797994 ] } },
{ "type": "Feature", "properties": { "N de registro": "HSS00511", "Nombre comercial": "TXIMISTARRI", "Razon Social": "", "Municipio": "Donostia / San Sebastian", "Localidad": "Igeldo | Diseminado", "Direccion": "Tximistarri", "Numero": "20", "Escalera": "", "Piso": "BAJO", "Letra": "", "ETRS89 (X)": 579193.9132, "ETRS89 (Y)": 4796594.957, "Web": "" }, "geometry": { "type": "Point", "coordinates": [ -2.023345845, 43.31802465 ] } },
{ "type": "Feature", "properties": { "N de registro": "HSS00513", "Nombre comercial": "ARISTIZABAL", "Razon Social": "PENSION HIRUKOTE SL", "Municipio": "Donostia / San Sebastian", "Localidad": "Donostia / San Sebastian", "Direccion": "Alfonso VIII", "Numero": "6", "Escalera": "", "Piso": "4", "Letra": "IZDA", "ETRS89 (X)": 582655.7578, "ETRS89 (Y)": 4796558.884, "Web": "" }, "geometry": { "type": "Point", "coordinates": [ -1.980664779, 43.31732739 ] } },
{ "type": "Feature", "properties": { "N de registro": "HSS00517", "Nombre comercial": "KARMENTXU II", "Razon Social": "", "Municipio": "Tolosa", "Localidad": "Tolosa", "Direccion": "Errementari", "Numero": "5", "Escalera": "", "Piso": "1", "Letra": "", "ETRS89 (X)": 575389.5115, "ETRS89 (Y)": 4776628.701, "Web": "" }, "geometry": { "type": "Point", "coordinates": [ -2.072985707, 43.13864853 ] } },
{ "type": "Feature", "properties": { "N de registro": "HSS00518", "Nombre comercial": "SAN VICENTE", "Razon Social": "INIGO FERNANDEZ GONZALEZ Y OTRA CB", "Municipio": "Donostia / San Sebastian", "Localidad": "Donostia / San Sebastian", "Direccion": "San Vicente", "Numero": "7", "Escalera": "", "Piso": "3", "Letra": "", "ETRS89 (X)": 582377.2296, "ETRS89 (Y)": 4797331.047, "Web": "" }, "geometry": { "type": "Point", "coordinates": [ -1.983983292, 43.32430986 ] } },
{ "type": "Feature", "properties": { "N de registro": "HSS00519", "Nombre comercial": "SAN MARTIN", "Razon Social": "DREAM RENTAL FACTORY, S.L.", "Municipio": "Donostia / San Sebastian", "Localidad": "Donostia / San Sebastian", "Direccion": "San Martin", "Numero": "10", "Escalera": "", "Piso": "1", "Letra": "", "ETRS89 (X)": 582638.6476, "ETRS89 (Y)": 4796629.52, "Web": "www.pensionsanmartin.com" }, "geometry": { "type": "Point", "coordinates": [ -1.980865124, 43.31796522 ] } },
{ "type": "Feature", "properties": { "N de registro": "HSS00522", "Nombre comercial": "DONOSTIARRA", "Razon Social": "AINHOA DE BOURTHOUMIEU ALZUGARAY Y OTRO, C.B.", "Municipio": "Donostia / San Sebastian", "Localidad": "Donostia / San Sebastian", "Direccion": "San Martin", "Numero": "6", "Escalera": "", "Piso": "1", "Letra": "", "ETRS89 (X)": 582677.8236, "ETRS89 (Y)": 4796652.115, "Web": "www.pensiondonostiarra.com" }, "geometry": { "type": "Point", "coordinates": [ -1.980378662, 43.31816434 ] } },
{ "type": "Feature", "properties": { "N de registro": "HSS00523", "Nombre comercial": "URKIA", "Razon Social": "", "Municipio": "Donostia / San Sebastian", "Localidad": "Donostia / San Sebastian", "Direccion": "Urbieta", "Numero": "12", "Escalera": "", "Piso": "3", "Letra": "IZDA", "ETRS89 (X)": 582418.5578, "ETRS89 (Y)": 4796616.363, "Web": "www.pensionurkia.com" }, "geometry": { "type": "Point", "coordinates": [ -1.98358092, 43.31787091 ] } },
{ "type": "Feature", "properties": { "N de registro": "HSS00524", "Nombre comercial": "URIZAR", "Razon Social": "", "Municipio": "Arrasate/Mondragon", "Localidad": "Arrasate/Mondragon", "Direccion": "Ferrerias", "Numero": "15", "Escalera": "", "Piso": "BAJO", "Letra": "", "ETRS89 (X)": 541492.9401, "ETRS89 (Y)": 4768291.048, "Web": "http://www.hostalurizar.com" }, "geometry": { "type": "Point", "coordinates": [ -2.490389447, 43.06618926 ] } },
{ "type": "Feature", "properties": { "N de registro": "HSS00525", "Nombre comercial": "YOKIN", "Razon Social": "BI AND BI HOSTELERIA 2020 SL", "Municipio": "Donostia / San Sebastian", "Localidad": "Donostia / San Sebastian", "Direccion": "Luis Pradera", "Numero": "23", "Escalera": "", "Piso": "1", "Letra": "", "ETRS89 (X)": 585496.9129, "ETRS89 (Y)": 4796838.807, "Web": "" }, "geometry": { "type": "Point", "coordinates": [ -1.945588961, 43.31952996 ] } },
{ "type": "Feature", "properties": { "N de registro": "HSS00526", "Nombre comercial": "SAN LORENZO", "Razon Social": "KEYHIVE ALOJAMIENTOS TURISTICOS SL", "Municipio": "Donostia / San Sebastian", "Localidad": "Donostia / San Sebastian", "Direccion": "San Lorenzo", "Numero": "2", "Escalera": "", "Piso": "1", "Letra": "", "ETRS89 (X)": 582443.0397, "ETRS89 (Y)": 4797210.892, "Web": "www.infonegocio.com/pensionsanlorenzo" }, "geometry": { "type": "Point", "coordinates": [ -1.983189779, 43.32322087 ] } },
{ "type": "Feature", "properties": { "N de registro": "HSS00528", "Nombre comercial": "LO EGIN", "Razon Social": "", "Municipio": "Donostia / San Sebastian", "Localidad": "Donostia / San Sebastian", "Direccion": "San Martin", "Numero": "16", "Escalera": "", "Piso": "2", "Letra": "", "ETRS89 (X)": 582614.3719, "ETRS89 (Y)": 4796617.112, "Web": "" }, "geometry": { "type": "Point", "coordinates": [ -1.981166323, 43.31785618 ] } },
{ "type": "Feature", "properties": { "N de registro": "HSS00531", "Nombre comercial": "URRUTITXO", "Razon Social": "MENDARAZ, S.L.", "Municipio": "Tolosa", "Localidad": "San Blas", "Direccion": "Kondeaneko aldapa", "Numero": "7", "Escalera": "", "Piso": "BAJO", "Letra": "", "ETRS89 (X)": 575139.6624, "ETRS89 (Y)": 4775768.456, "Web": "" }, "geometry": { "type": "Point", "coordinates": [ -2.076174149, 43.13092799 ] } },
{ "type": "Feature", "properties": { "N de registro": "HSS00532", "Nombre comercial": "MUSIKA PLAZA", "Razon Social": "TXIKI POLIT, S.L.", "Municipio": "Zarautz", "Localidad": "Zarautz", "Direccion": "Kale Nagusia", "Numero": "7", "Escalera": "", "Piso": "2", "Letra": "", "ETRS89 (X)": 566777.964, "ETRS89 (Y)": 4792921.295, "Web": "http://www.musikaplaza.com/" }, "geometry": { "type": "Point", "coordinates": [ -2.1768942, 43.28615307 ] } },
{ "type": "Feature", "properties": { "N de registro": "HSS00533", "Nombre comercial": "KAIA", "Razon Social": "", "Municipio": "Donostia / San Sebastian", "Localidad": "Donostia / San Sebastian", "Direccion": "Puerto", "Numero": "12", "Escalera": "", "Piso": "2", "Letra": "", "ETRS89 (X)": 582217.9364, "ETRS89 (Y)": 4797237.976, "Web": "www.pensionkaia.com" }, "geometry": { "type": "Point", "coordinates": [ -1.985961604, 43.32348936 ] } },
{ "type": "Feature", "properties": { "N de registro": "HSS00535", "Nombre comercial": "SAN JERONIMO", "Razon Social": "", "Municipio": "Donostia / San Sebastian", "Localidad": "Donostia / San Sebastian", "Direccion": "San Jeronimo", "Numero": "25", "Escalera": "", "Piso": "2", "Letra": "", "ETRS89 (X)": 582239.1695, "ETRS89 (Y)": 4797279.078, "Web": "www.pensionsanjeronimo.com" }, "geometry": { "type": "Point", "coordinates": [ -1.985693609, 43.32385708 ] } },
{ "type": "Feature", "properties": { "N de registro": "HSS00538", "Nombre comercial": "Kontxa Guesthouse", "Razon Social": "LUKAS DAVID ANDREAS BUYYNER YOTROS CB", "Municipio": "Donostia / San Sebastian", "Localidad": "Donostia / San Sebastian", "Direccion": "San Martin", "Numero": "43", "Escalera": "", "Piso": "2", "Letra": "IZDA", "ETRS89 (X)": 582274.2473, "ETRS89 (Y)": 4796417.043, "Web": "" }, "geometry": { "type": "Point", "coordinates": [ -1.985390202, 43.3160922 ] } },
{ "type": "Feature", "properties": { "N de registro": "HSS00539", "Nombre comercial": "BEIZAMA", "Razon Social": "", "Municipio": "Astigarraga", "Localidad": "Astigarraga | Diseminado", "Direccion": "Ergobia", "Numero": "", "Escalera": "", "Piso": "1", "Letra": "", "ETRS89 (X)": null, "ETRS89 (Y)": null, "Web": "http://www.beizamapension.com" }, "geometry": { "type": "Point", "coordinates": [ -1.954921165, 43.27658201 ] } },
{ "type": "Feature", "properties": { "N de registro": "HSS00541", "Nombre comercial": "AMAIUR", "Razon Social": "", "Municipio": "Donostia / San Sebastian", "Localidad": "Donostia / San Sebastian", "Direccion": "31 de Agosto", "Numero": "44", "Escalera": "", "Piso": "2", "Letra": "", "ETRS89 (X)": 582202.9372, "ETRS89 (Y)": 4797291.995, "Web": "www.pensionamaiur.ncom" }, "geometry": { "type": "Point", "coordinates": [ -1.98613848, 43.32397734 ] } },
{ "type": "Feature", "properties": { "N de registro": "HSS00542", "Nombre comercial": "LOREA", "Razon Social": "", "Municipio": "Donostia / San Sebastian", "Localidad": "Donostia / San Sebastian", "Direccion": "Boulevard", "Numero": "16", "Escalera": "", "Piso": "1", "Letra": "", "ETRS89 (X)": 582335.5304, "ETRS89 (Y)": 4797122.01, "Web": "www.pensionlorea.com" }, "geometry": { "type": "Point", "coordinates": [ -1.984528869, 43.32243243 ] } },
{ "type": "Feature", "properties": { "N de registro": "HSS00543", "Nombre comercial": "SAN NICOLAS", "Razon Social": "", "Municipio": "Hondarribia", "Localidad": "Alde Zaharra", "Direccion": "Arma plaza", "Numero": "6", "Escalera": "", "Piso": "", "Letra": "", "ETRS89 (X)": 597901.9611, "ETRS89 (Y)": 4801870.653, "Web": "www.hotelsannikolas.es" }, "geometry": { "type": "Point", "coordinates": [ -1.79173389, 43.3633169 ] } },
{ "type": "Feature", "properties": { "N de registro": "HSS00549", "Nombre comercial": "MAITE", "Razon Social": "M. PILAR LLORENTE OLMOS Y OTRO, C.B.", "Municipio": "Donostia / San Sebastian", "Localidad": "Donostia / San Sebastian", "Direccion": "Madrid", "Numero": "19", "Escalera": "", "Piso": "BAJO", "Letra": "", "ETRS89 (X)": 583095.2035, "ETRS89 (Y)": 4795036.204, "Web": "www.pensionmaite.com" }, "geometry": { "type": "Point", "coordinates": [ -1.975476568, 43.30357004 ] } },
{ "type": "Feature", "properties": { "N de registro": "HSS00550", "Nombre comercial": "EUROPA", "Razon Social": "INVERSIONES NARON 2003 SL", "Municipio": "Donostia / San Sebastian", "Localidad": "Donostia / San Sebastian", "Direccion": "San Martin", "Numero": "52", "Escalera": "", "Piso": "", "Letra": "", "ETRS89 (X)": 582301.6565, "ETRS89 (Y)": 4796451.066, "Web": "http://www.hotelhusaeuropa.com/" }, "geometry": { "type": "Point", "coordinates": [ -1.985047144, 43.31639552 ] } },
{ "type": "Feature", "properties": { "N de registro": "HSS00551", "Nombre comercial": "BEACH BREAK", "Razon Social": "GUIRIGAZTA SL", "Municipio": "Donostia / San Sebastian", "Localidad": "Donostia / San Sebastian", "Direccion": "Esterlines", "Numero": "10", "Escalera": "", "Piso": "3", "Letra": "", "ETRS89 (X)": 582314.083, "ETRS89 (Y)": 4797179.888, "Web": "" }, "geometry": { "type": "Point", "coordinates": [ -1.984784669, 43.32295586 ] } },
{ "type": "Feature", "properties": { "N de registro": "HSS00552", "Nombre comercial": "KARLOS ARGUINANO", "Razon Social": "KARLOS ARGUInANO PROMOCIONES SL", "Municipio": "Zarautz", "Localidad": "Zarautz", "Direccion": "Mendilauta", "Numero": "13", "Escalera": "", "Piso": "", "Letra": "", "ETRS89 (X)": 567899.671, "ETRS89 (Y)": 4793147.149, "Web": "www.hotelka.com" }, "geometry": { "type": "Point", "coordinates": [ -2.163041583, 43.28808627 ] } },
{ "type": "Feature", "properties": { "N de registro": "HSS00553", "Nombre comercial": "LARREA", "Razon Social": ". KH ALOJAMIENTOS TURISTICOS SL", "Municipio": "Donostia / San Sebastian", "Localidad": "Donostia / San Sebastian", "Direccion": "Narrica", "Numero": "21", "Escalera": "", "Piso": "1", "Letra": "", "ETRS89 (X)": 582355.741, "ETRS89 (Y)": 4797243.755, "Web": "" }, "geometry": { "type": "Point", "coordinates": [ -1.984261381, 43.32352631 ] } },
{ "type": "Feature", "properties": { "N de registro": "HSS00554", "Nombre comercial": "OBISPO", "Razon Social": "APEZPIKU HOTELA SL", "Municipio": "Hondarribia", "Localidad": "Alde Zaharra", "Direccion": "Apezpiku", "Numero": "1", "Escalera": "", "Piso": "", "Letra": "", "ETRS89 (X)": 597964.7614, "ETRS89 (Y)": 4801726.482, "Web": "www.hotelobispo.com" }, "geometry": { "type": "Point", "coordinates": [ -1.790984781, 43.36201082 ] } },
{ "type": "Feature", "properties": { "N de registro": "HSS00556", "Nombre comercial": "ARRASATE", "Razon Social": "ARRASATE HOTEL, C.B.", "Municipio": "Arrasate/Mondragon", "Localidad": "Arrasate/Mondragon", "Direccion": "Biteri", "Numero": "1", "Escalera": "", "Piso": "", "Letra": "", "ETRS89 (X)": 541687.8801, "ETRS89 (Y)": 4768247.077, "Web": "www.hotelarrasate.com" }, "geometry": { "type": "Point", "coordinates": [ -2.48799861, 43.06578263 ] } },
{ "type": "Feature", "properties": { "N de registro": "HSS00557", "Nombre comercial": "RIO BIDASOA", "Razon Social": "OLAMAR SOL S.A.", "Municipio": "Hondarribia", "Localidad": "Puntalea", "Direccion": "Nafarroa-Behera", "Numero": "1", "Escalera": "", "Piso": "", "Letra": "", "ETRS89 (X)": 598153.2367, "ETRS89 (Y)": 4801776.712, "Web": "www.hotelriobidasoa.com" }, "geometry": { "type": "Point", "coordinates": [ -1.788693809, 43.36227492 ] } },
{ "type": "Feature", "properties": { "N de registro": "HSS00558", "Nombre comercial": "LAGUNAK", "Razon Social": "", "Municipio": "Zarautz", "Localidad": "Zarautz", "Direccion": "San Frantzisko", "Numero": "10", "Escalera": "", "Piso": "1", "Letra": "", "ETRS89 (X)": 567035.1272, "ETRS89 (Y)": 4792714.737, "Web": "asadorlagunak.com" }, "geometry": { "type": "Point", "coordinates": [ -2.1737499, 43.28427044 ] } },
{ "type": "Feature", "properties": { "N de registro": "HSS00560", "Nombre comercial": "AUSSIE", "Razon Social": "", "Municipio": "Donostia / San Sebastian", "Localidad": "Donostia / San Sebastian", "Direccion": "San Jeronimo", "Numero": "23", "Escalera": "", "Piso": "2", "Letra": "", "ETRS89 (X)": 582243.2677, "ETRS89 (Y)": 4797260.432, "Web": "" }, "geometry": { "type": "Point", "coordinates": [ -1.985645864, 43.32368876 ] } },
{ "type": "Feature", "properties": { "N de registro": "HSS00561", "Nombre comercial": "SORALUZE", "Razon Social": "SORABERRI ONATI SL", "Municipio": "Onati", "Localidad": "Uribarri | Diseminado", "Direccion": "Uribarri", "Numero": "16", "Escalera": "", "Piso": "", "Letra": "", "ETRS89 (X)": 547287.0392, "ETRS89 (Y)": 4763334.507, "Web": "http://www.soraluzeostatua.es" }, "geometry": { "type": "Point", "coordinates": [ -2.419651341, 43.02121879 ] } },
{ "type": "Feature", "properties": { "N de registro": "HSS00563", "Nombre comercial": "ANOETA", "Razon Social": "DENDATEGUI HERMANOS, S.A.", "Municipio": "Donostia / San Sebastian", "Localidad": "Donostia / San Sebastian", "Direccion": "Anoeta", "Numero": "30", "Escalera": "", "Piso": "", "Letra": "", "ETRS89 (X)": 583371.1177, "ETRS89 (Y)": 4794879.326, "Web": "www.hotelanoeta.com" }, "geometry": { "type": "Point", "coordinates": [ -1.972099015, 43.30212712 ] } },
{ "type": "Feature", "properties": { "N de registro": "HSS00564", "Nombre comercial": "ALAMEDA", "Razon Social": "AZPI ENEA, S.L.", "Municipio": "Zarautz", "Localidad": "Zarautz", "Direccion": "Seitximeneta", "Numero": "4", "Escalera": "", "Piso": "", "Letra": "", "ETRS89 (X)": 567324.111, "ETRS89 (Y)": 4792858.538, "Web": "www.hotelalameda.net" }, "geometry": { "type": "Point", "coordinates": [ -2.170170758, 43.28553939 ] } },
{ "type": "Feature", "properties": { "N de registro": "HSS00565", "Nombre comercial": "NH ARANZAZU", "Razon Social": "NH HOTELES ESPANA SA", "Municipio": "Donostia / San Sebastian", "Localidad": "Donostia / San Sebastian", "Direccion": "Vitoria-Gasteiz", "Numero": "5", "Escalera": "", "Piso": "", "Letra": "", "ETRS89 (X)": 580512.2341, "ETRS89 (Y)": 4796032.691, "Web": "www.nh-hotels.com" }, "geometry": { "type": "Point", "coordinates": [ -2.007172533, 43.31282247 ] } },
{ "type": "Feature", "properties": { "N de registro": "HSS00566", "Nombre comercial": "LOS FRONTERIZOS", "Razon Social": "", "Municipio": "Irun", "Localidad": "Irun", "Direccion": "Estacion", "Numero": "7", "Escalera": "", "Piso": "2", "Letra": "", "ETRS89 (X)": 597372.0336, "ETRS89 (Y)": 4799374.301, "Web": "http://www.pensionlosfronterizos.com" }, "geometry": { "type": "Point", "coordinates": [ -1.798716025, 43.34091227 ] } },
{ "type": "Feature", "properties": { "N de registro": "HSS00568", "Nombre comercial": "ZALDUA", "Razon Social": "", "Municipio": "Donostia / San Sebastian", "Localidad": "Zubieta | Diseminado", "Direccion": "Arrapide", "Numero": "8", "Escalera": "", "Piso": "", "Letra": "", "ETRS89 (X)": 579120.0882, "ETRS89 (Y)": 4790872.812, "Web": "" }, "geometry": { "type": "Point", "coordinates": [ -2.025079503, 43.2665141 ] } },
{ "type": "Feature", "properties": { "N de registro": "HSS00569", "Nombre comercial": "LOINAZ", "Razon Social": "", "Municipio": "Donostia / San Sebastian", "Localidad": "Donostia / San Sebastian", "Direccion": "San Lorenzo", "Numero": "17", "Escalera": "", "Piso": "2", "Letra": "", "ETRS89 (X)": 582389.0707, "ETRS89 (Y)": 4797193.425, "Web": "www.pensionloinaz.com" }, "geometry": { "type": "Point", "coordinates": [ -1.983857924, 43.32306953 ] } },
{ "type": "Feature", "properties": { "N de registro": "HSS00571", "Nombre comercial": "SILKEN AMARA PLAZA", "Razon Social": "SERVICIOS TURISTICOS DE AMARA SL", "Municipio": "Donostia / San Sebastian", "Localidad": "Donostia / San Sebastian", "Direccion": "Pio XII", "Numero": "7", "Escalera": "", "Piso": "", "Letra": "", "ETRS89 (X)": 582859.9414, "ETRS89 (Y)": 4795510.228, "Web": "www.amaraplaza.com" }, "geometry": { "type": "Point", "coordinates": [ -1.978305304, 43.3078637 ] } },
{ "type": "Feature", "properties": { "N de registro": "HSS00572", "Nombre comercial": "URDANIBIA", "Razon Social": "HOTEL URDANIBIA, SL", "Municipio": "Irun", "Localidad": "Irun", "Direccion": "Jaizubia", "Numero": "61", "Escalera": "", "Piso": "", "Letra": "", "ETRS89 (X)": 595188.3362, "ETRS89 (Y)": 4798105.09, "Web": "http://www.hotelurdanibia.com" }, "geometry": { "type": "Point", "coordinates": [ -1.825870991, 43.32976575 ] } },
{ "type": "Feature", "properties": { "N de registro": "HSS00573", "Nombre comercial": "IZASKUN", "Razon Social": "", "Municipio": "Itsasondo", "Localidad": "Itsasondo", "Direccion": "Kale Nagusia", "Numero": "10", "Escalera": "", "Piso": "BAJO", "Letra": "", "ETRS89 (X)": 568075.8517, "ETRS89 (Y)": 4768839.277, "Web": "" }, "geometry": { "type": "Point", "coordinates": [ -2.163862089, 43.06920606 ] } },
{ "type": "Feature", "properties": { "N de registro": "HSS00574", "Nombre comercial": "BOWLING", "Razon Social": "MULTISERVICIOS ANCLA, S.L.", "Municipio": "Irun", "Localidad": "Irun", "Direccion": "Mourlane Michelena", "Numero": "4", "Escalera": "", "Piso": "BAJO", "Letra": "", "ETRS89 (X)": 597546.2023, "ETRS89 (Y)": 4799308.665, "Web": "www.pensionbowlingirun.com" }, "geometry": { "type": "Point", "coordinates": [ -1.796579434, 43.34029879 ] } },
{ "type": "Feature", "properties": { "N de registro": "HSS00576", "Nombre comercial": "IPAR", "Razon Social": "HAZI HOSPITALITY SL", "Municipio": "Zarautz", "Localidad": "Zarautz", "Direccion": "Ipar", "Numero": "14", "Escalera": "", "Piso": "1", "Letra": "", "ETRS89 (X)": 566842.2899, "ETRS89 (Y)": 4792966.626, "Web": "www.lasonet.com/hotelnorte" }, "geometry": { "type": "Point", "coordinates": [ -2.176095891, 43.28655551 ] } },
{ "type": "Feature", "properties": { "N de registro": "HSS00577", "Nombre comercial": "NICOL'S", "Razon Social": "HOSTELERA NICOL'S", "Municipio": "Donostia / San Sebastian", "Localidad": "Igeldo | Diseminado", "Direccion": "Gudamendi", "Numero": "21", "Escalera": "", "Piso": "", "Letra": "", "ETRS89 (X)": 578954.9074, "ETRS89 (Y)": 4795955.967, "Web": "www.hotelnicols.com" }, "geometry": { "type": "Point", "coordinates": [ -2.02638481, 43.31229676 ] } },
{ "type": "Feature", "properties": { "N de registro": "HSS00578", "Nombre comercial": "EZEIZA", "Razon Social": "HERMANOS ETXENIKE S.L", "Municipio": "Donostia / San Sebastian", "Localidad": "Donostia / San Sebastian", "Direccion": "Satrustegi", "Numero": "13", "Escalera": "", "Piso": "", "Letra": "", "ETRS89 (X)": 580710.662, "ETRS89 (Y)": 4796430.93, "Web": "www.hotelezeiza.com" }, "geometry": { "type": "Point", "coordinates": [ -2.004667483, 43.31638664 ] } },
{ "type": "Feature", "properties": { "N de registro": "HSS00579", "Nombre comercial": "LA GALERIA", "Razon Social": "ONDAREHOTEL, S.L.", "Municipio": "Donostia / San Sebastian", "Localidad": "Donostia / San Sebastian", "Direccion": "Infanta Cristina", "Numero": "3", "Escalera": "", "Piso": "", "Letra": "", "ETRS89 (X)": 580810.3708, "ETRS89 (Y)": 4796356.765, "Web": "www.hotellagaleria.com" }, "geometry": { "type": "Point", "coordinates": [ -2.003448959, 43.31570821 ] } },
{ "type": "Feature", "properties": { "N de registro": "HSS00582", "Nombre comercial": "REGIL", "Razon Social": "", "Municipio": "Donostia / San Sebastian", "Localidad": "Donostia / San Sebastian", "Direccion": "Sierra de Aralar", "Numero": "", "Escalera": "", "Piso": "1", "Letra": "", "ETRS89 (X)": null, "ETRS89 (Y)": null, "Web": "" }, "geometry": { "type": "Point", "coordinates": [ -1.966064422, 43.3126543 ] } },
{ "type": "Feature", "properties": { "N de registro": "HSS00583", "Nombre comercial": "TXIKI POLIT", "Razon Social": "TXIKI POLIT SL", "Municipio": "Zarautz", "Localidad": "Zarautz", "Direccion": "Orape", "Numero": "8", "Escalera": "", "Piso": "1", "Letra": "", "ETRS89 (X)": 566774.8718, "ETRS89 (Y)": 4792900.389, "Web": "www.txikipolit.com" }, "geometry": { "type": "Point", "coordinates": [ -2.176934848, 43.28596512 ] } },
{ "type": "Feature", "properties": { "N de registro": "HSS00584", "Nombre comercial": "EUROPA", "Razon Social": "M.B. PAUSALEKU, S.L.", "Municipio": "Irun", "Localidad": "Irun", "Direccion": "Iparralde", "Numero": "59", "Escalera": "", "Piso": "1", "Letra": "", "ETRS89 (X)": 598351.5987, "ETRS89 (Y)": 4800282.816, "Web": "" }, "geometry": { "type": "Point", "coordinates": [ -1.786470793, 43.34896364 ] } },
{ "type": "Feature", "properties": { "N de registro": "HSS00586", "Nombre comercial": "AMARA", "Razon Social": "CERRO TAMAYA, S.L.", "Municipio": "Donostia / San Sebastian", "Localidad": "Donostia / San Sebastian", "Direccion": "Isabel II", "Numero": "2", "Escalera": "", "Piso": "1", "Letra": "", "ETRS89 (X)": 583108.8669, "ETRS89 (Y)": 4795212.048, "Web": "" }, "geometry": { "type": "Point", "coordinates": [ -1.975281538, 43.30515169 ] } },
{ "type": "Feature", "properties": { "N de registro": "HSS00587", "Nombre comercial": "UXARTE", "Razon Social": "UXARTENEA SL", "Municipio": "Arrasate/Mondragon", "Localidad": "Udala | Diseminado", "Direccion": "Udala", "Numero": "12", "Escalera": "", "Piso": "BAJO", "Letra": "", "ETRS89 (X)": 539626.7571, "ETRS89 (Y)": 4769548.272, "Web": "http://www.uxarte.es" }, "geometry": { "type": "Point", "coordinates": [ -2.513219232, 43.07760989 ] } },
{ "type": "Feature", "properties": { "N de registro": "HSS00588", "Nombre comercial": "EZKIZU", "Razon Social": "", "Municipio": "Ezkio-Itsaso", "Localidad": "Anduaga (Santa Lutzia)", "Direccion": "Santa Lutzi-Anduaga", "Numero": "22", "Escalera": "", "Piso": "BAJO", "Letra": "", "ETRS89 (X)": 558897.1798, "ETRS89 (Y)": 4768249.427, "Web": "" }, "geometry": { "type": "Point", "coordinates": [ -2.276651599, 43.06466304 ] } },
{ "type": "Feature", "properties": { "N de registro": "HSS00589", "Nombre comercial": "ARTEA", "Razon Social": "", "Municipio": "Donostia / San Sebastian", "Localidad": "Donostia / San Sebastian", "Direccion": "San Bartolome", "Numero": "33", "Escalera": "", "Piso": "1", "Letra": "", "ETRS89 (X)": 582106.6835, "ETRS89 (Y)": 4796284.78, "Web": "www.pensionartea.com" }, "geometry": { "type": "Point", "coordinates": [ -1.987476063, 43.31491972 ] } },
{ "type": "Feature", "properties": { "N de registro": "HSS00590", "Nombre comercial": "ERROTA", "Razon Social": "COMPLEJO DONOSTI-IGARA, S.L.", "Municipio": "Donostia / San Sebastian", "Localidad": "Donostia / San Sebastian | Diseminado", "Direccion": "Igara", "Numero": "125", "Escalera": "", "Piso": "BAJO", "Letra": "", "ETRS89 (X)": 579434.0734, "ETRS89 (Y)": 4794178.979, "Web": "" }, "geometry": { "type": "Point", "coordinates": [ -2.020733782, 43.29624757 ] } },
{ "type": "Feature", "properties": { "N de registro": "HSS00591", "Nombre comercial": "Pension Otola", "Razon Social": "JACQUELINE DEL CARMEN ILARRAZABAL ROMAN Y OTRA CB", "Municipio": "Azpeitia", "Localidad": "Azpeitia | Diseminado", "Direccion": "Izarraitz", "Numero": "24", "Escalera": "", "Piso": "BAJO", "Letra": "-", "ETRS89 (X)": 560160.5008, "ETRS89 (Y)": 4782436.459, "Web": "" }, "geometry": { "type": "Point", "coordinates": [ -2.259598087, 43.19230589 ] } },
{ "type": "Feature", "properties": { "N de registro": "HSS00592", "Nombre comercial": "AMETZAGANA", "Razon Social": "CHATE Y PINARILLOS HOSTALES, S.L.", "Municipio": "Donostia / San Sebastian", "Localidad": "Donostia / San Sebastian | Diseminado", "Direccion": "Uba", "Numero": "61", "Escalera": "", "Piso": "1", "Letra": "", "ETRS89 (X)": 584971.7763, "ETRS89 (Y)": 4795332.724, "Web": "www.ametzagana.com" }, "geometry": { "type": "Point", "coordinates": [ -1.952297243, 43.30603007 ] } },
{ "type": "Feature", "properties": { "N de registro": "HSS00595", "Nombre comercial": "ETXE AUNDI", "Razon Social": "HOTEL ETXE AUNDI SL", "Municipio": "Onati", "Localidad": "Torreauzo", "Direccion": "Torreauzo", "Numero": "10", "Escalera": "", "Piso": "", "Letra": "", "ETRS89 (X)": 546619.3732, "ETRS89 (Y)": 4765840.307, "Web": "www.etxeaundi.com" }, "geometry": { "type": "Point", "coordinates": [ -2.427635485, 43.04382374 ] } },
{ "type": "Feature", "properties": { "N de registro": "HSS00596", "Nombre comercial": "EL PUERTO", "Razon Social": "ROOMS PORT SL", "Municipio": "Donostia / San Sebastian", "Localidad": "Donostia / San Sebastian", "Direccion": "Puerto", "Numero": "19", "Escalera": "", "Piso": "1", "Letra": "-", "ETRS89 (X)": 582154.229, "ETRS89 (Y)": 4797202.983, "Web": "" }, "geometry": { "type": "Point", "coordinates": [ -1.986752458, 43.32318128 ] } },
{ "type": "Feature", "properties": { "N de registro": "HSS00597", "Nombre comercial": "FRONTERA", "Razon Social": "", "Municipio": "Irun", "Localidad": "Irun | Diseminado", "Direccion": "Behobia", "Numero": "37", "Escalera": "", "Piso": "BAJO", "Letra": "", "ETRS89 (X)": 600894.4192, "ETRS89 (Y)": 4799132.97, "Web": "" }, "geometry": { "type": "Point", "coordinates": [ -1.755314447, 43.33827508 ] } },
{ "type": "Feature", "properties": { "N de registro": "HSS00598", "Nombre comercial": "KOFRADI ZAHARRA", "Razon Social": "", "Municipio": "Mutriku", "Localidad": "Mutriku", "Direccion": "Muelle", "Numero": "0-A-B", "Escalera": "", "Piso": "1", "Letra": "", "ETRS89 (X)": 550005.9167, "ETRS89 (Y)": 4795184.494, "Web": "" }, "geometry": { "type": "Point", "coordinates": [ -2.383407021, 43.30783191 ] } },
{ "type": "Feature", "properties": { "N de registro": "HSS00600", "Nombre comercial": "SALBATORE", "Razon Social": "HOTEL SALBATORE, S.L.", "Municipio": "Beasain", "Localidad": "Salbatore", "Direccion": "Salbatore", "Numero": "4", "Escalera": "", "Piso": "", "Letra": "", "ETRS89 (X)": 562807.8539, "ETRS89 (Y)": 4766638.575, "Web": "http://www.salbatorehotela.com" }, "geometry": { "type": "Point", "coordinates": [ -2.228808398, 43.04984499 ] } },
{ "type": "Feature", "properties": { "N de registro": "HSS00601", "Nombre comercial": "ZUMARDI", "Razon Social": "IDURRE ARANBERRI DIEZ Y OTRA CB", "Municipio": "Deba", "Localidad": "Deba", "Direccion": "Marinel", "Numero": "12", "Escalera": "", "Piso": "1", "Letra": "", "ETRS89 (X)": 552458.9812, "ETRS89 (Y)": 4793983.848, "Web": "http://www.pensionzumardi.com" }, "geometry": { "type": "Point", "coordinates": [ -2.353276208, 43.29685421 ] } },
{ "type": "Feature", "properties": { "N de registro": "HSS00603", "Nombre comercial": "BALERDI", "Razon Social": "", "Municipio": "Donostia / San Sebastian", "Localidad": "Donostia / San Sebastian", "Direccion": "San Juan", "Numero": "1", "Escalera": "", "Piso": "2", "Letra": "", "ETRS89 (X)": 582455.359, "ETRS89 (Y)": 4797201.803, "Web": "www.pensionbalerdi.com" }, "geometry": { "type": "Point", "coordinates": [ -1.983039227, 43.3231377 ] } },
{ "type": "Feature", "properties": { "N de registro": "HSS00604", "Nombre comercial": "AINTZIETA", "Razon Social": "", "Municipio": "Donostia / San Sebastian", "Localidad": "Donostia / San Sebastian", "Direccion": "Felisa Martin Bravo", "Numero": "4", "Escalera": "", "Piso": "2", "Letra": "", "ETRS89 (X)": 584136.6125, "ETRS89 (Y)": 4795210.549, "Web": "" }, "geometry": { "type": "Point", "coordinates": [ -1.962611863, 43.30502397 ] } },
{ "type": "Feature", "properties": { "N de registro": "HSS00605", "Nombre comercial": "ORIA", "Razon Social": "ARMALOA,S.L.", "Municipio": "Tolosa", "Localidad": "Tolosa", "Direccion": "Oria", "Numero": "2", "Escalera": "", "Piso": "", "Letra": "", "ETRS89 (X)": 575052.5533, "ETRS89 (Y)": 4776136.021, "Web": "www.hoteloria.com" }, "geometry": { "type": "Point", "coordinates": [ -2.07719524, 43.13424608 ] } },
{ "type": "Feature", "properties": { "N de registro": "HSS00607", "Nombre comercial": "LOIOLA", "Razon Social": "HOTEL LOIOLA SL", "Municipio": "Azpeitia", "Localidad": "Azpeitia", "Direccion": "Loiolako Ignazio", "Numero": "47", "Escalera": "", "Piso": "", "Letra": "", "ETRS89 (X)": 558991.5205, "ETRS89 (Y)": 4780903.601, "Web": "www.hotelloiola.com" }, "geometry": { "type": "Point", "coordinates": [ -2.274147267, 43.17859612 ] } },
{ "type": "Feature", "properties": { "N de registro": "HSS00608", "Nombre comercial": "ITXUNE", "Razon Social": "BEKOERROTA GABIRIA, S.L.", "Municipio": "Ormaiztegi", "Localidad": "Ormaiztegi", "Direccion": "Gabirialde", "Numero": "14", "Escalera": "", "Piso": "BAJO", "Letra": "", "ETRS89 (X)": 560394.1716, "ETRS89 (Y)": 4765812.533, "Web": "www.itxune.com" }, "geometry": { "type": "Point", "coordinates": [ -2.258532117, 43.04260296 ] } },
{ "type": "Feature", "properties": { "N de registro": "HSS00609", "Nombre comercial": "ORMAZABAL", "Razon Social": "", "Municipio": "Bergara", "Localidad": "Bergara", "Direccion": "Barrenkalea", "Numero": "11", "Escalera": "", "Piso": "", "Letra": "", "ETRS89 (X)": 547748.2293, "ETRS89 (Y)": 4774095.917, "Web": "gratisweb.com/hotelormazabal" }, "geometry": { "type": "Point", "coordinates": [ -2.413067598, 43.11809115 ] } },
{ "type": "Feature", "properties": { "N de registro": "HSS00611", "Nombre comercial": "IRIBAR", "Razon Social": "", "Municipio": "Getaria", "Localidad": "Getaria", "Direccion": "Aldamar", "Numero": "23", "Escalera": "", "Piso": "1", "Letra": "", "ETRS89 (X)": 564604.5162, "ETRS89 (Y)": 4794898.822, "Web": "http://blogak.com/iribar" }, "geometry": { "type": "Point", "coordinates": [ -2.203449178, 43.30414787 ] } },
{ "type": "Feature", "properties": { "N de registro": "HSS00612", "Nombre comercial": "GRAN BAHIA BERNARDO", "Razon Social": "BERNARDO BELTRAN HOSTELERIA, S.L.", "Municipio": "Donostia / San Sebastian", "Localidad": "Donostia / San Sebastian", "Direccion": "Embeltran", "Numero": "16", "Escalera": "", "Piso": "1", "Letra": "", "ETRS89 (X)": 582251.093, "ETRS89 (Y)": 4797126.259, "Web": "www.paisvasco.com/granbahia" }, "geometry": { "type": "Point", "coordinates": [ -1.985569467, 43.32247993 ] } },
{ "type": "Feature", "properties": { "N de registro": "HSS00613", "Nombre comercial": "BUENPAS", "Razon Social": "JON DE LA HOZ SL", "Municipio": "Donostia / San Sebastian", "Localidad": "Donostia / San Sebastian", "Direccion": "San Bartolome", "Numero": "6", "Escalera": "", "Piso": "1", "Letra": "", "ETRS89 (X)": 582477.5321, "ETRS89 (Y)": 4796464.813, "Web": "" }, "geometry": { "type": "Point", "coordinates": [ -1.982876498, 43.31650002 ] } },
{ "type": "Feature", "properties": { "N de registro": "HSS00614", "Nombre comercial": "GOIKO", "Razon Social": "BASQUETRAVEL, S.L.", "Municipio": "Donostia / San Sebastian", "Localidad": "Donostia / San Sebastian", "Direccion": "Puerto", "Numero": "6", "Escalera": "", "Piso": "2", "Letra": "", "ETRS89 (X)": 582238.7572, "ETRS89 (Y)": 4797247.074, "Web": "" }, "geometry": { "type": "Point", "coordinates": [ -1.985703487, 43.323569 ] } },
{ "type": "Feature", "properties": { "N de registro": "HSS00615", "Nombre comercial": "AIDA", "Razon Social": "ACF TOURISM ASOCIADOS, S.L.", "Municipio": "Donostia / San Sebastian", "Localidad": "Donostia / San Sebastian", "Direccion": "Iztueta", "Numero": "9", "Escalera": "", "Piso": "1", "Letra": "", "ETRS89 (X)": 583086.8423, "ETRS89 (Y)": 4796995.375, "Web": "www.pensionesconencanto.com" }, "geometry": { "type": "Point", "coordinates": [ -1.975283305, 43.32120969 ] } },
{ "type": "Feature", "properties": { "N de registro": "HSS00617", "Nombre comercial": "MONDRAGON", "Razon Social": "HOTEL ALTO DEBA, S.L.", "Municipio": "Arrasate/Mondragon", "Localidad": "Arrasate/Mondragon", "Direccion": "Biteri", "Numero": "16", "Escalera": "", "Piso": "", "Letra": "", "ETRS89 (X)": 541699.8613, "ETRS89 (Y)": 4768086.21, "Web": "www.hotelmondragon.com" }, "geometry": { "type": "Point", "coordinates": [ -2.487863523, 43.06433342 ] } },
{ "type": "Feature", "properties": { "N de registro": "HSS00619", "Nombre comercial": "ARIES", "Razon Social": "", "Municipio": "Donostia / San Sebastian", "Localidad": "Donostia / San Sebastian", "Direccion": "San Jeronimo", "Numero": "22", "Escalera": "", "Piso": "2", "Letra": "", "ETRS89 (X)": 582242.2369, "ETRS89 (Y)": 4797291.055, "Web": "www.pensionaries.com" }, "geometry": { "type": "Point", "coordinates": [ -1.985653987, 43.32396458 ] } },
{ "type": "Feature", "properties": { "N de registro": "HSS00620", "Nombre comercial": "MIRAMAR", "Razon Social": "", "Municipio": "Donostia / San Sebastian", "Localidad": "Donostia / San Sebastian", "Direccion": "Puerto", "Numero": "6", "Escalera": "", "Piso": "1", "Letra": "B", "ETRS89 (X)": 582238.7572, "ETRS89 (Y)": 4797247.074, "Web": "www.pensionmiramar.net" }, "geometry": { "type": "Point", "coordinates": [ -1.985703487, 43.323569 ] } },
{ "type": "Feature", "properties": { "N de registro": "HSS00621", "Nombre comercial": "BALENTINA", "Razon Social": "BALENTINA PENTSIOA JATETXEA, S. COOP.", "Municipio": "Zumarraga", "Localidad": "Zumarraga", "Direccion": "Urola", "Numero": "8", "Escalera": "", "Piso": "1", "Letra": "", "ETRS89 (X)": 555402.4013, "ETRS89 (Y)": 4770885.61, "Web": "http://www.pension-balentina.com" }, "geometry": { "type": "Point", "coordinates": [ -2.319307126, 43.08866335 ] } },
{ "type": "Feature", "properties": { "N de registro": "HSS00623", "Nombre comercial": "ITXASOA", "Razon Social": "", "Municipio": "Donostia / San Sebastian", "Localidad": "Donostia / San Sebastian", "Direccion": "San Juan", "Numero": "14", "Escalera": "", "Piso": "2", "Letra": "F", "ETRS89 (X)": 582339.6203, "ETRS89 (Y)": 4797474.868, "Web": "www.pensionesconencanto.com" }, "geometry": { "type": "Point", "coordinates": [ -1.98442551, 43.32560882 ] } },
{ "type": "Feature", "properties": { "N de registro": "HSS00625", "Nombre comercial": "KURSAAL", "Razon Social": "ARKU ALOJAMIENTOS, S.L.", "Municipio": "Donostia / San Sebastian", "Localidad": "Donostia / San Sebastian", "Direccion": "Pena y Goni", "Numero": "2", "Escalera": "", "Piso": "1", "Letra": "DCHA", "ETRS89 (X)": 582846.5666, "ETRS89 (Y)": 4797285.966, "Web": "www.pensionkursaal.com" }, "geometry": { "type": "Point", "coordinates": [ -1.978202331, 43.32385243 ] } },
{ "type": "Feature", "properties": { "N de registro": "HSS00626", "Nombre comercial": "ZEZILIONEA", "Razon Social": "ZEZILIO ENEA, S.L.", "Municipio": "Olaberria", "Localidad": "Olaberria", "Direccion": "San Juan", "Numero": "3", "Escalera": "", "Piso": "", "Letra": "", "ETRS89 (X)": 564907.6004, "ETRS89 (Y)": 4764079.045, "Web": "http://www.hotelzezilionea.com" }, "geometry": { "type": "Point", "coordinates": [ -2.203327108, 43.02662196 ] } },
{ "type": "Feature", "properties": { "N de registro": "HSS00627", "Nombre comercial": "LER ARGI", "Razon Social": "", "Municipio": "Urnieta", "Localidad": "Urnieta", "Direccion": "Oztaran", "Numero": "15", "Escalera": "", "Piso": "", "Letra": "", "ETRS89 (X)": 581593.0581, "ETRS89 (Y)": 4788903.732, "Web": "www..lerargi.com" }, "geometry": { "type": "Point", "coordinates": [ -1.994903672, 43.24852215 ] } },
{ "type": "Feature", "properties": { "N de registro": "HSS00628", "Nombre comercial": "ZUMAIA", "Razon Social": "ZUMAIA HOTELA, S.L.", "Municipio": "Zumaia", "Localidad": "Zumaia", "Direccion": "Alai", "Numero": "13", "Escalera": "", "Piso": "", "Letra": "", "ETRS89 (X)": 560423.9061, "ETRS89 (Y)": 4793445.198, "Web": "http://www.zumaiahotela.com" }, "geometry": { "type": "Point", "coordinates": [ -2.25514998, 43.29140698 ] } },
{ "type": "Feature", "properties": { "N de registro": "HSS00630", "Nombre comercial": "AITANA", "Razon Social": "M.B. PAUSALEKU, S.L.", "Municipio": "Irun", "Localidad": "Irun", "Direccion": "Iparralde", "Numero": "51", "Escalera": "", "Piso": "", "Letra": "", "ETRS89 (X)": 598335.0163, "ETRS89 (Y)": 4800236.876, "Web": "www.hotelaitana.com" }, "geometry": { "type": "Point", "coordinates": [ -1.786683592, 43.34855223 ] } },
{ "type": "Feature", "properties": { "N de registro": "HSS00631", "Nombre comercial": "VILLA DE URNIETA", "Razon Social": "", "Municipio": "Urnieta", "Localidad": "Urnieta", "Direccion": "Dendaldegi", "Numero": "4", "Escalera": "", "Piso": "1", "Letra": "", "ETRS89 (X)": 581847.5413, "ETRS89 (Y)": 4788658.043, "Web": "http://www.pension-villa-urnieta.com" }, "geometry": { "type": "Point", "coordinates": [ -1.991805806, 43.24628255 ] } },
{ "type": "Feature", "properties": { "N de registro": "HSS00632", "Nombre comercial": "ALDAMAR", "Razon Social": "SORLEK GESTION 2020, S.L.", "Municipio": "Donostia / San Sebastian", "Localidad": "Donostia / San Sebastian", "Direccion": "Aldamar", "Numero": "2", "Escalera": "", "Piso": "1", "Letra": "---", "ETRS89 (X)": 582535.7478, "ETRS89 (Y)": 4797208.622, "Web": "nicolasabh.com" }, "geometry": { "type": "Point", "coordinates": [ -1.982046884, 43.32319027 ] } },
{ "type": "Feature", "properties": { "N de registro": "HSS00633", "Nombre comercial": "ATXEGA JAUREGIA", "Razon Social": "EVA ARANADIA MENDIZABAL Y OTRA, C.B.", "Municipio": "Usurbil", "Localidad": "Usurbil | Diseminado", "Direccion": "Aitzezarra", "Numero": "1", "Escalera": "", "Piso": "", "Letra": "", "ETRS89 (X)": 576771.8779, "ETRS89 (Y)": 4791357.973, "Web": "www.hotelatxega.com" }, "geometry": { "type": "Point", "coordinates": [ -2.053942649, 43.27112515 ] } },
{ "type": "Feature", "properties": { "N de registro": "HSS00634", "Nombre comercial": "ETH IRUN", "Razon Social": "EUROTIR HOTELES, S.L.", "Municipio": "Irun", "Localidad": "Irun", "Direccion": "Comete Sarea", "Numero": "2", "Escalera": "", "Piso": "", "Letra": "", "ETRS89 (X)": 600983.029, "ETRS89 (Y)": 4799153.406, "Web": "www.hoteleth.com" }, "geometry": { "type": "Point", "coordinates": [ -1.754217802, 43.33844715 ] } },
{ "type": "Feature", "properties": { "N de registro": "HSS00635", "Nombre comercial": "SAN TELMO", "Razon Social": "JON RUIZ OLAZIREGI S.L.", "Municipio": "Donostia / San Sebastian", "Localidad": "Donostia / San Sebastian", "Direccion": "San Juan", "Numero": "13", "Escalera": "", "Piso": "1", "Letra": "", "ETRS89 (X)": 582414.0308, "ETRS89 (Y)": 4797299.304, "Web": "" }, "geometry": { "type": "Point", "coordinates": [ -1.983534232, 43.32402004 ] } },
{ "type": "Feature", "properties": { "N de registro": "HSS00636", "Nombre comercial": "ANNE", "Razon Social": "", "Municipio": "Donostia / San Sebastian", "Localidad": "Donostia / San Sebastian", "Direccion": "Esterlines", "Numero": "15", "Escalera": "", "Piso": "2", "Letra": "", "ETRS89 (X)": 582300.0403, "ETRS89 (Y)": 4797170.19, "Web": "" }, "geometry": { "type": "Point", "coordinates": [ -1.98495929, 43.32287009 ] } },
{ "type": "Feature", "properties": { "N de registro": "HSS00637", "Nombre comercial": "ZINKOENEA", "Razon Social": "", "Municipio": "Hernani", "Localidad": "Hernani", "Direccion": "Kale Nagusia", "Numero": "57", "Escalera": "", "Piso": "1", "Letra": "", "ETRS89 (X)": 583247.059, "ETRS89 (Y)": 4791049.296, "Web": "" }, "geometry": { "type": "Point", "coordinates": [ -1.974207938, 43.26765835 ] } },
{ "type": "Feature", "properties": { "N de registro": "HSS00638", "Nombre comercial": "TXINTXUA", "Razon Social": "JS83 HOTELS SLU", "Municipio": "Hernani", "Localidad": "Zikunaga", "Direccion": "Zikunaga", "Numero": "72", "Escalera": "", "Piso": "", "Letra": "", "ETRS89 (X)": 583888.1734, "ETRS89 (Y)": 4790171.364, "Web": "www.hoteltxintxua.com" }, "geometry": { "type": "Point", "coordinates": [ -1.966442953, 43.25968305 ] } },
{ "type": "Feature", "properties": { "N de registro": "HSS00640", "Nombre comercial": "LARRANAGA", "Razon Social": "HOTEL LARRANAGA, S.L.", "Municipio": "Azpeitia", "Localidad": "Urrestilla | Diseminado", "Direccion": "Urrestilla", "Numero": "392", "Escalera": "", "Piso": "", "Letra": "", "ETRS89 (X)": 561162.8162, "ETRS89 (Y)": 4779384.32, "Web": "www.hotel-larranaga.com" }, "geometry": { "type": "Point", "coordinates": [ -2.247601039, 43.16474385 ] } },
{ "type": "Feature", "properties": { "N de registro": "HSS00641", "Nombre comercial": "KANALA ITZIAR", "Razon Social": "NABARNIZ KANALA SL", "Municipio": "Deba", "Localidad": "Itziar | Diseminado", "Direccion": "Itziar", "Numero": "2", "Escalera": "", "Piso": "", "Letra": "", "ETRS89 (X)": 554282.5084, "ETRS89 (Y)": 4791845.084, "Web": "www.hotelkanala.com" }, "geometry": { "type": "Point", "coordinates": [ -2.331007998, 43.27746742 ] } },
{ "type": "Feature", "properties": { "N de registro": "HSS00642", "Nombre comercial": "ZARAGOZA PLAZA", "Razon Social": "ARANTXA Y MARIA PILAR, S.L.", "Municipio": "Donostia / San Sebastian", "Localidad": "Donostia / San Sebastian", "Direccion": "Zaragoza", "Numero": "3", "Escalera": "", "Piso": "", "Letra": "", "ETRS89 (X)": 582293.7487, "ETRS89 (Y)": 4796504.725, "Web": "www.hotelzaragozaplaza.com" }, "geometry": { "type": "Point", "coordinates": [ -1.985136608, 43.31687949 ] } },
{ "type": "Feature", "properties": { "N de registro": "HSS00644", "Nombre comercial": "IGARTZA", "Razon Social": "HOTEL IGARTZA, S.L.", "Municipio": "Beasain", "Localidad": "Beasain", "Direccion": "Oriamendi", "Numero": "41", "Escalera": "", "Piso": "", "Letra": "", "ETRS89 (X)": 564851.3473, "ETRS89 (Y)": 4766368.769, "Web": "www.goierri.com/h-igartza" }, "geometry": { "type": "Point", "coordinates": [ -2.20375095, 43.0472438 ] } },
{ "type": "Feature", "properties": { "N de registro": "HSS00645", "Nombre comercial": "MAULEON", "Razon Social": "HOTEL MAULEON, S.L.", "Municipio": "Legazpi", "Localidad": "Legazpi", "Direccion": "Nafarroa", "Numero": "16", "Escalera": "", "Piso": "", "Letra": "", "ETRS89 (X)": 554387.4286, "ETRS89 (Y)": 4766787.844, "Web": "www.hotelmauleon.com" }, "geometry": { "type": "Point", "coordinates": [ -2.332177322, 43.05183906 ] } },
{ "type": "Feature", "properties": { "N de registro": "HSS00646", "Nombre comercial": "NUEVAS ARTES", "Razon Social": "", "Municipio": "Donostia / San Sebastian", "Localidad": "Donostia / San Sebastian", "Direccion": "Urbieta", "Numero": "64", "Escalera": "", "Piso": "1", "Letra": "", "ETRS89 (X)": 582654.6363, "ETRS89 (Y)": 4796168.864, "Web": "www.pension-nuevasartes.com" }, "geometry": { "type": "Point", "coordinates": [ -1.980737303, 43.3138161 ] } },
{ "type": "Feature", "properties": { "N de registro": "HSS00648", "Nombre comercial": "MONTE ULIA", "Razon Social": "AMINOR S.L.", "Municipio": "Donostia / San Sebastian", "Localidad": "Donostia / San Sebastian", "Direccion": "Alcalde Jose Elosegi", "Numero": "21", "Escalera": "", "Piso": "", "Letra": "", "ETRS89 (X)": 584518.2961, "ETRS89 (Y)": 4797103.553, "Web": "www.hotelmonteulia.com" }, "geometry": { "type": "Point", "coordinates": [ -1.957615261, 43.32202411 ] } },
{ "type": "Feature", "properties": { "N de registro": "HSS00649", "Nombre comercial": "AB DOMINI", "Razon Social": "MIRAMAR OSTATUA, S.L.", "Municipio": "Donostia / San Sebastian", "Localidad": "Donostia / San Sebastian", "Direccion": "San Juan", "Numero": "8", "Escalera": "", "Piso": "2", "Letra": "", "ETRS89 (X)": 582410.4686, "ETRS89 (Y)": 4797336.066, "Web": "http://www.abpensiones.com/" }, "geometry": { "type": "Point", "coordinates": [ -1.983572642, 43.32435141 ] } },
{ "type": "Feature", "properties": { "N de registro": "HSS00650", "Nombre comercial": "USATEGIETA", "Razon Social": "USATEBERRI SL,", "Municipio": "Oiartzun", "Localidad": "Arragua | Diseminado", "Direccion": "Maldaburu", "Numero": "16", "Escalera": "", "Piso": "", "Letra": "", "ETRS89 (X)": 593113.7559, "ETRS89 (Y)": 4797251.953, "Web": "www.hotelusategieta.com" }, "geometry": { "type": "Point", "coordinates": [ -1.851600133, 43.32234497 ] } },
{ "type": "Feature", "properties": { "N de registro": "HSS00651", "Nombre comercial": "IRAIPE ONGI HOTEL", "Razon Social": "VIGAR HOSTELERIA SL", "Municipio": "Onati", "Localidad": "Onati", "Direccion": "Kale Zaharra", "Numero": "19", "Escalera": "", "Piso": "", "Letra": "", "ETRS89 (X)": 547713.0608, "ETRS89 (Y)": 4764817.665, "Web": "www.hotelongi.com" }, "geometry": { "type": "Point", "coordinates": [ -2.414296123, 43.03454737 ] } },
{ "type": "Feature", "properties": { "N de registro": "HSS00652", "Nombre comercial": "PALACIO DE AIETE", "Razon Social": "CAMA Y MANTEL, S.L.", "Municipio": "Donostia / San Sebastian", "Localidad": "Donostia / San Sebastian", "Direccion": "Goiko Galtzada Berria", "Numero": "27", "Escalera": "", "Piso": "", "Letra": "", "ETRS89 (X)": 581569.5987, "ETRS89 (Y)": 4795247.841, "Web": "" }, "geometry": { "type": "Point", "coordinates": [ -1.994252248, 43.30564238 ] } },
{ "type": "Feature", "properties": { "N de registro": "HSS00653", "Nombre comercial": "ZELAI", "Razon Social": "HOTEL DEBA SL", "Municipio": "Zumaia", "Localidad": "Zumaia", "Direccion": "Larretxo", "Numero": "16", "Escalera": "", "Piso": "", "Letra": "", "ETRS89 (X)": 560044.9023, "ETRS89 (Y)": 4794348.794, "Web": "www.talasozelai.com" }, "geometry": { "type": "Point", "coordinates": [ -2.259722915, 43.29957317 ] } },
{ "type": "Feature", "properties": { "N de registro": "HSS00654", "Nombre comercial": "EDORTA", "Razon Social": "", "Municipio": "Donostia / San Sebastian", "Localidad": "Donostia / San Sebastian", "Direccion": "Puerto", "Numero": "15", "Escalera": "", "Piso": "2", "Letra": "", "ETRS89 (X)": 582174.3736, "ETRS89 (Y)": 4797211.491, "Web": "" }, "geometry": { "type": "Point", "coordinates": [ -1.986502769, 43.32325568 ] } },
{ "type": "Feature", "properties": { "N de registro": "HSS00655", "Nombre comercial": "JAIZKIBEL", "Razon Social": "HOTEL MONTE JAIZKIBEL, S.L.", "Municipio": "Hondarribia", "Localidad": "Akartegi", "Direccion": "Baserritar", "Numero": "1", "Escalera": "", "Piso": "", "Letra": "", "ETRS89 (X)": 597330.8291, "ETRS89 (Y)": 4802202.366, "Web": "www.hoteljaizkibel.com" }, "geometry": { "type": "Point", "coordinates": [ -1.798722109, 43.3663774 ] } },
{ "type": "Feature", "properties": { "N de registro": "HSS00656", "Nombre comercial": "PALACETE", "Razon Social": "SANTOS ECHEVESTE, S.L.", "Municipio": "Hondarribia", "Localidad": "Alde Zaharra", "Direccion": "Gipuzkoa", "Numero": "5", "Escalera": "", "Piso": "", "Letra": "", "ETRS89 (X)": 597821.3085, "ETRS89 (Y)": 4801930.691, "Web": "www.hotelpalacete.net" }, "geometry": { "type": "Point", "coordinates": [ -1.792718335, 43.36386791 ] } },
{ "type": "Feature", "properties": { "N de registro": "HSS00658", "Nombre comercial": "IZAR BAT", "Razon Social": "GUIRIGAZTA SL", "Municipio": "Donostia / San Sebastian", "Localidad": "Donostia / San Sebastian", "Direccion": "Fermin Calbeton", "Numero": "6", "Escalera": "", "Piso": "1", "Letra": "", "ETRS89 (X)": 582413.2228, "ETRS89 (Y)": 4797244.375, "Web": "" }, "geometry": { "type": "Point", "coordinates": [ -1.983552443, 43.32352559 ] } },
{ "type": "Feature", "properties": { "N de registro": "HSS00659", "Nombre comercial": "KOXKA BI", "Razon Social": "", "Municipio": "Donostia / San Sebastian", "Localidad": "Donostia / San Sebastian", "Direccion": "Embeltran", "Numero": "16", "Escalera": "", "Piso": "2", "Letra": "DCHA", "ETRS89 (X)": 582251.093, "ETRS89 (Y)": 4797126.259, "Web": "" }, "geometry": { "type": "Point", "coordinates": [ -1.985569467, 43.32247993 ] } },
{ "type": "Feature", "properties": { "N de registro": "HSS00660", "Nombre comercial": "IBIS IRUN", "Razon Social": "HOTEL ECONOMIQUE IRUN, S.L.", "Municipio": "Irun", "Localidad": "Irun", "Direccion": "Letxunborro", "Numero": "77", "Escalera": "", "Piso": "", "Letra": "", "ETRS89 (X)": 595940.9014, "ETRS89 (Y)": 4798460.517, "Web": "www.ibishotel.com" }, "geometry": { "type": "Point", "coordinates": [ -1.81652805, 43.33286987 ] } },
{ "type": "Feature", "properties": { "N de registro": "HSS00661", "Nombre comercial": "SANTA CLARA", "Razon Social": "", "Municipio": "Donostia / San Sebastian", "Localidad": "Donostia / San Sebastian", "Direccion": "San Lorenzo", "Numero": "6", "Escalera": "", "Piso": "1", "Letra": "", "ETRS89 (X)": 582422.153, "ETRS89 (Y)": 4797206.243, "Web": "www.pensionsantaclara.com" }, "geometry": { "type": "Point", "coordinates": [ -1.983448043, 43.3231813 ] } },
{ "type": "Feature", "properties": { "N de registro": "HSS00662", "Nombre comercial": "ZEGAMA", "Razon Social": "EDUARDO CUESTA ALONSO Y OTRA CB", "Municipio": "Zegama", "Localidad": "Zegama", "Direccion": "San Martin", "Numero": "3", "Escalera": "", "Piso": "BAJO", "Letra": "", "ETRS89 (X)": 557898.9791, "ETRS89 (Y)": 4758369.288, "Web": "" }, "geometry": { "type": "Point", "coordinates": [ -2.289936071, 42.9757755 ] } },
{ "type": "Feature", "properties": { "N de registro": "HSS00663", "Nombre comercial": "XALOA", "Razon Social": "XALOA ORIO, S.L.", "Municipio": "Orio", "Localidad": "Orio", "Direccion": "Estropalari", "Numero": "24", "Escalera": "", "Piso": "1", "Letra": "", "ETRS89 (X)": 570977.1767, "ETRS89 (Y)": 4792420.567, "Web": "www.xaloa.com" }, "geometry": { "type": "Point", "coordinates": [ -2.125205016, 43.28126058 ] } },
{ "type": "Feature", "properties": { "N de registro": "HSS00664", "Nombre comercial": "BASIC CONFORT 2", "Razon Social": "PILAR ELORZA ZUBIZARRETA Y OTRO, C.B.", "Municipio": "Donostia / San Sebastian", "Localidad": "Donostia / San Sebastian", "Direccion": "San Lorenzo", "Numero": "12", "Escalera": "", "Piso": "1", "Letra": "", "ETRS89 (X)": 582384.2469, "ETRS89 (Y)": 4797198.504, "Web": "www.basicconfort.com" }, "geometry": { "type": "Point", "coordinates": [ -1.983916647, 43.32311579 ] } },
{ "type": "Feature", "properties": { "N de registro": "HSS00665", "Nombre comercial": "ATALAIA", "Razon Social": "", "Municipio": "Irun", "Localidad": "Irun | Diseminado", "Direccion": "Ventas", "Numero": "69", "Escalera": "", "Piso": "", "Letra": "", "ETRS89 (X)": 594605.5199, "ETRS89 (Y)": 4797291.925, "Web": "www.hotelatalaia.com" }, "geometry": { "type": "Point", "coordinates": [ -1.83319859, 43.32251863 ] } },
{ "type": "Feature", "properties": { "N de registro": "HSS00666", "Nombre comercial": "ALAMEDA", "Razon Social": "PENSION ALAMEDA SL", "Municipio": "Donostia / San Sebastian", "Localidad": "Donostia / San Sebastian", "Direccion": "Boulevard", "Numero": "16", "Escalera": "", "Piso": "2", "Letra": "", "ETRS89 (X)": 582335.5304, "ETRS89 (Y)": 4797122.01, "Web": "www.pensionalameda.com" }, "geometry": { "type": "Point", "coordinates": [ -1.984528869, 43.32243243 ] } },
{ "type": "Feature", "properties": { "N de registro": "HSS00667", "Nombre comercial": "UR-ALDE", "Razon Social": "", "Municipio": "Donostia / San Sebastian", "Localidad": "Donostia / San Sebastian", "Direccion": "Puerto", "Numero": "17", "Escalera": "", "Piso": "1", "Letra": "", "ETRS89 (X)": 582161.1803, "ETRS89 (Y)": 4797205.933, "Web": "http://www.ur-alde.com" }, "geometry": { "type": "Point", "coordinates": [ -1.986666296, 43.32320707 ] } },
{ "type": "Feature", "properties": { "N de registro": "HSS00668", "Nombre comercial": "VILLA SORO", "Razon Social": "BABEL 2000 HOTELES, S.L.", "Municipio": "Donostia / San Sebastian", "Localidad": "Donostia / San Sebastian", "Direccion": "Ategorrieta", "Numero": "61", "Escalera": "", "Piso": "", "Letra": "", "ETRS89 (X)": 584046.0978, "ETRS89 (Y)": 4797136.557, "Web": "www.villasoro.com" }, "geometry": { "type": "Point", "coordinates": [ -1.963433007, 43.32237416 ] } },
{ "type": "Feature", "properties": { "N de registro": "HSS00670", "Nombre comercial": "ZELAI", "Razon Social": "ZELAI PENTSIOA, S.L.", "Municipio": "Zumarraga", "Localidad": "Zumarraga", "Direccion": "Legazpi", "Numero": "5", "Escalera": "", "Piso": "1", "Letra": "", "ETRS89 (X)": 555735.1788, "ETRS89 (Y)": 4771016.003, "Web": "" }, "geometry": { "type": "Point", "coordinates": [ -2.315205712, 43.08981306 ] } },
{ "type": "Feature", "properties": { "N de registro": "HSS00671", "Nombre comercial": "IRA", "Razon Social": "", "Municipio": "Donostia / San Sebastian", "Localidad": "Donostia / San Sebastian", "Direccion": "San Jeronimo", "Numero": "13", "Escalera": "", "Piso": "1", "Letra": "", "ETRS89 (X)": 582270.0089, "ETRS89 (Y)": 4797173.989, "Web": "" }, "geometry": { "type": "Point", "coordinates": [ -1.985329053, 43.32290758 ] } },
{ "type": "Feature", "properties": { "N de registro": "HSS00672", "Nombre comercial": "BELLE EPOQUE", "Razon Social": "URWELCOME SL", "Municipio": "Donostia / San Sebastian", "Localidad": "Donostia / San Sebastian", "Direccion": "Boulevard", "Numero": "26", "Escalera": "", "Piso": "1", "Letra": "IZDA", "ETRS89 (X)": 582276.4324, "ETRS89 (Y)": 4797104.913, "Web": "" }, "geometry": { "type": "Point", "coordinates": [ -1.985260193, 43.32228497 ] } },
{ "type": "Feature", "properties": { "N de registro": "HSS00674", "Nombre comercial": "ANOETA", "Razon Social": "", "Municipio": "Donostia / San Sebastian", "Localidad": "Donostia / San Sebastian", "Direccion": "Madrid", "Numero": "13", "Escalera": "", "Piso": "1", "Letra": "", "ETRS89 (X)": 583049.5133, "ETRS89 (Y)": 4795096.922, "Web": "" }, "geometry": { "type": "Point", "coordinates": [ -1.976030642, 43.30412174 ] } },
{ "type": "Feature", "properties": { "N de registro": "HSS00676", "Nombre comercial": "SAIAZ GETARIA", "Razon Social": "MUNOSAIN SL", "Municipio": "Getaria", "Localidad": "Getaria", "Direccion": "San Roke", "Numero": "25", "Escalera": "", "Piso": "", "Letra": "", "ETRS89 (X)": 564525.1004, "ETRS89 (Y)": 4794880.676, "Web": "" }, "geometry": { "type": "Point", "coordinates": [ -2.204430384, 43.3039913 ] } },
{ "type": "Feature", "properties": { "N de registro": "HSS00677", "Nombre comercial": "EKIA", "Razon Social": "PAULO KOLDO GOIA ZUATZOLAZIGORRAGA Y OTRA, C.B.", "Municipio": "Zarautz", "Localidad": "Zarautz", "Direccion": "Elizaurrea", "Numero": "3", "Escalera": "", "Piso": "2", "Letra": "", "ETRS89 (X)": 566752.0721, "ETRS89 (Y)": 4792942.43, "Web": "www.ekiapentsioa.com" }, "geometry": { "type": "Point", "coordinates": [ -2.177210747, 43.28634567 ] } },
{ "type": "Feature", "properties": { "N de registro": "HSS00679", "Nombre comercial": "UROLA", "Razon Social": "URIBADIOLA, S.L.", "Municipio": "Zumarraga", "Localidad": "Zumarraga", "Direccion": "Antonino Oraa", "Numero": "2", "Escalera": "", "Piso": "BAJO", "Letra": "", "ETRS89 (X)": 555425.267, "ETRS89 (Y)": 4770378.643, "Web": "www.pensionurola.com" }, "geometry": { "type": "Point", "coordinates": [ -2.319076775, 43.08409679 ] } },
{ "type": "Feature", "properties": { "N de registro": "HSS00680", "Nombre comercial": "GUREGAS", "Razon Social": "GUREGAS CARBURANTES, S.L.", "Municipio": "Beasain", "Localidad": "Altamira | Diseminado", "Direccion": "Nacional 1", "Numero": "0-A-B", "Escalera": "", "Piso": "", "Letra": "", "ETRS89 (X)": 564959.1122, "ETRS89 (Y)": 4766091.376, "Web": "" }, "geometry": { "type": "Point", "coordinates": [ -2.20246029, 43.0447369 ] } },
{ "type": "Feature", "properties": { "N de registro": "HSS00681", "Nombre comercial": "LARRAMENDI TORREA", "Razon Social": "LARRAMENDI TORREA, S.L.", "Municipio": "Azkoitia", "Localidad": "Azkoitia", "Direccion": "San Joan", "Numero": "6", "Escalera": "", "Piso": "", "Letra": "", "ETRS89 (X)": 556666.4233, "ETRS89 (Y)": 4780146.175, "Web": "www.larramenditorrea.com" }, "geometry": { "type": "Point", "coordinates": [ -2.302831565, 43.17195407 ] } },
{ "type": "Feature", "properties": { "N de registro": "HSS00682", "Nombre comercial": "HOTEL ANTIK SAN SEBASTIAN", "Razon Social": "HOTEL ANTIK SAN SEBASTIAN SL", "Municipio": "Donostia / San Sebastian", "Localidad": "Donostia / San Sebastian", "Direccion": "Zarautz", "Numero": "120", "Escalera": "", "Piso": "", "Letra": "", "ETRS89 (X)": 580798.4226, "ETRS89 (Y)": 4794930.766, "Web": "www.hotelantiksansebastian.com" }, "geometry": { "type": "Point", "coordinates": [ -2.003806001, 43.30287088 ] } },
{ "type": "Feature", "properties": { "N de registro": "HSS00683", "Nombre comercial": "VILLA ANTILLA", "Razon Social": "BERAICH CONSTRUCCIONES Y PROMOCIONES SL", "Municipio": "Orio", "Localidad": "Orio", "Direccion": "Hondartza", "Numero": "1", "Escalera": "", "Piso": "", "Letra": "", "ETRS89 (X)": 570867.0782, "ETRS89 (Y)": 4793060.406, "Web": "www.villaantilla.com" }, "geometry": { "type": "Point", "coordinates": [ -2.126479399, 43.28703181 ] } },
{ "type": "Feature", "properties": { "N de registro": "HSS00684", "Nombre comercial": "TXARRIDUNA", "Razon Social": "SERVICIOS HOSTELEROS URAL, S.L.", "Municipio": "Elgoibar", "Localidad": "Elgoibar", "Direccion": "Ermuaranbide", "Numero": "3", "Escalera": "", "Piso": "", "Letra": "", "ETRS89 (X)": 547852.7784, "ETRS89 (Y)": 4784972.483, "Web": "www.hoteltxarriduna.com" }, "geometry": { "type": "Point", "coordinates": [ -2.410842016, 43.21602096 ] } },
{ "type": "Feature", "properties": { "N de registro": "HSS00686", "Nombre comercial": "ARRIZUL", "Razon Social": "ARRIZUL GROS TOURISM,S.L.", "Municipio": "Donostia / San Sebastian", "Localidad": "Donostia / San Sebastian", "Direccion": "Pena y Goni", "Numero": "1", "Escalera": "", "Piso": "", "Letra": "", "ETRS89 (X)": 582862.0193, "ETRS89 (Y)": 4797298.714, "Web": "http://www.arrizulhotel.com/" }, "geometry": { "type": "Point", "coordinates": [ -1.978009849, 43.32396549 ] } },
{ "type": "Feature", "properties": { "N de registro": "HSS00688", "Nombre comercial": "KATRAPONA", "Razon Social": "", "Municipio": "Getaria", "Localidad": "Getaria", "Direccion": "Katrapona", "Numero": "4", "Escalera": "", "Piso": "BAJO", "Letra": "", "ETRS89 (X)": 564632.4696, "ETRS89 (Y)": 4794944.893, "Web": "" }, "geometry": { "type": "Point", "coordinates": [ -2.203099137, 43.30456028 ] } },
{ "type": "Feature", "properties": { "N de registro": "HSS00689", "Nombre comercial": "GURIA", "Razon Social": "MAINEKE, S.L.", "Municipio": "Urnieta", "Localidad": "Urnieta", "Direccion": "Idiazabal", "Numero": "48", "Escalera": "", "Piso": "BAJO", "Letra": "", "ETRS89 (X)": 581740.4526, "ETRS89 (Y)": 4788728.198, "Web": "www.pensionguria.com" }, "geometry": { "type": "Point", "coordinates": [ -1.993114316, 43.2469258 ] } },
{ "type": "Feature", "properties": { "N de registro": "HSS00690", "Nombre comercial": "ZUMALABE", "Razon Social": "", "Municipio": "Mutriku", "Localidad": "Mutriku", "Direccion": "Muelle", "Numero": "2", "Escalera": "", "Piso": "", "Letra": "", "ETRS89 (X)": 549957.6373, "ETRS89 (Y)": 4795164.588, "Web": "www.hotelzumalabe.com" }, "geometry": { "type": "Point", "coordinates": [ -2.384004102, 43.30765589 ] } },
{ "type": "Feature", "properties": { "N de registro": "HSS00691", "Nombre comercial": "ITURREGI", "Razon Social": "HOTEL ITURREGI, S.L.", "Municipio": "Getaria", "Localidad": "Askizu | Diseminado", "Direccion": "Askizu", "Numero": "29", "Escalera": "", "Piso": "", "Letra": "", "ETRS89 (X)": 562817.7984, "ETRS89 (Y)": 4794306.813, "Web": "http://www.hoteliturregi.com" }, "geometry": { "type": "Point", "coordinates": [ -2.225544438, 43.29896883 ] } },
{ "type": "Feature", "properties": { "N de registro": "HSS00694", "Nombre comercial": "LAZKAO", "Razon Social": "LAZKAO HOTELA, S.L.", "Municipio": "Lazkao", "Localidad": "Zubierreka | Diseminado", "Direccion": "Zubierreka", "Numero": "17", "Escalera": "", "Piso": "", "Letra": "", "ETRS89 (X)": 566755.1973, "ETRS89 (Y)": 4763882.126, "Web": "" }, "geometry": { "type": "Point", "coordinates": [ -2.180675609, 43.02468877 ] } },
{ "type": "Feature", "properties": { "N de registro": "HSS00695", "Nombre comercial": "BABES", "Razon Social": "", "Municipio": "Urnieta", "Localidad": "Urnieta", "Direccion": "Idiazabal", "Numero": "6", "Escalera": "", "Piso": "BAJO", "Letra": "", "ETRS89 (X)": 581938.3281, "ETRS89 (Y)": 4789165.279, "Web": "http://www.pensionbabes.com" }, "geometry": { "type": "Point", "coordinates": [ -1.990612254, 43.25083949 ] } },
{ "type": "Feature", "properties": { "N de registro": "HSS00696", "Nombre comercial": "ARRUPE", "Razon Social": "HOTEL ARRUPE S.L.", "Municipio": "Azpeitia", "Localidad": "Loiola", "Direccion": "Loiola Auzoa", "Numero": "8", "Escalera": "", "Piso": "", "Letra": "", "ETRS89 (X)": 558400.079, "ETRS89 (Y)": 4780394.854, "Web": "http://www.hotelarrupe.org" }, "geometry": { "type": "Point", "coordinates": [ -2.281477723, 43.17406125 ] } },
{ "type": "Feature", "properties": { "N de registro": "HSS00697", "Nombre comercial": "ARBE", "Razon Social": "ITZIAR SUKIA AIZPURUA, C.B.", "Municipio": "Mutriku", "Localidad": "Laranga | Diseminado", "Direccion": "Laranga", "Numero": "5-B", "Escalera": "", "Piso": "", "Letra": "", "ETRS89 (X)": 551602.7492, "ETRS89 (Y)": 4794813.76, "Web": "www.hotelarbe.com" }, "geometry": { "type": "Point", "coordinates": [ -2.363753428, 43.30438597 ] } },
{ "type": "Feature", "properties": { "N de registro": "HSS00698", "Nombre comercial": "ELIZALDE", "Razon Social": "ITURROSPE, S.L.", "Municipio": "Oiartzun", "Localidad": "Elizalde", "Direccion": "Iparralde", "Numero": "1", "Escalera": "", "Piso": "", "Letra": "", "ETRS89 (X)": 592303.4616, "ETRS89 (Y)": 4794815.709, "Web": "www.hotelelizalde.com" }, "geometry": { "type": "Point", "coordinates": [ -1.862001142, 43.3005118 ] } },
{ "type": "Feature", "properties": { "N de registro": "HSS00699", "Nombre comercial": "ITXAS GAIN", "Razon Social": "HERMANOS SILVETI ECHARRI, S.L.", "Municipio": "Getaria", "Localidad": "Getaria", "Direccion": "San Roke", "Numero": "1", "Escalera": "", "Piso": "", "Letra": "", "ETRS89 (X)": 564493.0571, "ETRS89 (Y)": 4794796.923, "Web": "" }, "geometry": { "type": "Point", "coordinates": [ -2.204835258, 43.30323996 ] } },
{ "type": "Feature", "properties": { "N de registro": "HSS00700", "Nombre comercial": "ALTAIR", "Razon Social": "RELABIEN S.L.", "Municipio": "Donostia / San Sebastian", "Localidad": "Donostia / San Sebastian", "Direccion": "Padre Larroca", "Numero": "3", "Escalera": "", "Piso": "ENTR", "Letra": "", "ETRS89 (X)": 583205.8215, "ETRS89 (Y)": 4797140.226, "Web": "www.pension-altair.com" }, "geometry": { "type": "Point", "coordinates": [ -1.973794203, 43.32250064 ] } },
{ "type": "Feature", "properties": { "N de registro": "HSS00701", "Nombre comercial": "JOAKINA", "Razon Social": "PENSION JOAKINA, S.L.", "Municipio": "Donostia / San Sebastian", "Localidad": "Donostia / San Sebastian", "Direccion": "Camino", "Numero": "4", "Escalera": "", "Piso": "4", "Letra": "DCHA", "ETRS89 (X)": 582607.3794, "ETRS89 (Y)": 4796978.049, "Web": "" }, "geometry": { "type": "Point", "coordinates": [ -1.981198245, 43.32110651 ] } },
{ "type": "Feature", "properties": { "N de registro": "HSS00703", "Nombre comercial": "ATXIKI", "Razon Social": "", "Municipio": "Donostia / San Sebastian", "Localidad": "Donostia / San Sebastian", "Direccion": "Zemoriya", "Numero": "11", "Escalera": "", "Piso": "BAJO", "Letra": "", "ETRS89 (X)": 583483.6323000001, "ETRS89 (Y)": 4797612.98, "Web": "" }, "geometry": { "type": "Point", "coordinates": [ -1.970296517, 43.32672611 ] } },
{ "type": "Feature", "properties": { "N de registro": "HSS00704", "Nombre comercial": "Zinema7 Hotel", "Razon Social": "SOCIEDAD ANONIMA DEPORTES Y ESPECTACULOS", "Municipio": "Donostia / San Sebastian", "Localidad": "Donostia / San Sebastian", "Direccion": "Sagrada Familia", "Numero": "1", "Escalera": "", "Piso": "", "Letra": "", "ETRS89 (X)": 582711.5739, "ETRS89 (Y)": 4795556.108, "Web": "www.zinema7hotel.com" }, "geometry": { "type": "Point", "coordinates": [ -1.98012754, 43.3082931 ] } },
{ "type": "Feature", "properties": { "N de registro": "HSS00706", "Nombre comercial": "BENTA ALDEA", "Razon Social": "", "Municipio": "Anoeta", "Localidad": "Anoeta | Diseminado", "Direccion": "Industrialdea", "Numero": "38", "Escalera": "", "Piso": "1", "Letra": "", "ETRS89 (X)": 575502.4878, "ETRS89 (Y)": 4778111.799, "Web": "http://www.bentaldea.com" }, "geometry": { "type": "Point", "coordinates": [ -2.071394577, 43.1519906 ] } },
{ "type": "Feature", "properties": { "N de registro": "HSS00707", "Nombre comercial": "BERRI-VERSALLES", "Razon Social": "MAIMAKER, S.L.", "Municipio": "Errenteria", "Localidad": "Errenteria", "Direccion": "Kaputxinogana", "Numero": "9", "Escalera": "", "Piso": "", "Letra": "", "ETRS89 (X)": 588650.635, "ETRS89 (Y)": 4796632.249, "Web": "http://www.hotelberriversalles.com" }, "geometry": { "type": "Point", "coordinates": [ -1.906735105, 43.3173052 ] } },
{ "type": "Feature", "properties": { "N de registro": "HSS00708", "Nombre comercial": "OIANUME", "Razon Social": "OIANUME, C.B.", "Municipio": "Urnieta", "Localidad": "Urnieta", "Direccion": "Ergoien", "Numero": "18-C", "Escalera": "", "Piso": "BAJO", "Letra": "", "ETRS89 (X)": 581477.2864, "ETRS89 (Y)": 4787638.58, "Web": "www.oianume.com" }, "geometry": { "type": "Point", "coordinates": [ -1.996516567, 43.2371441 ] } },
{ "type": "Feature", "properties": { "N de registro": "HSS00709", "Nombre comercial": "IRIARTE JAUREGIA", "Razon Social": "MUGASABE BIDANI XXI, S.L.", "Municipio": "Bidania-Goiatz", "Localidad": "Bidania | Diseminado", "Direccion": "Eliz", "Numero": "8", "Escalera": "", "Piso": "", "Letra": "", "ETRS89 (X)": 568820.4019000001, "ETRS89 (Y)": 4776633.55, "Web": "iriartejauregia.com" }, "geometry": { "type": "Point", "coordinates": [ -2.153752, 43.13931808 ] } },
{ "type": "Feature", "properties": { "N de registro": "HSS00710", "Nombre comercial": "IRENAZ RESORT", "Razon Social": "LOIGRAN ARRENDAMIENTOS Y PROMOCIONES SL", "Municipio": "Donostia / San Sebastian", "Localidad": "Anorga", "Direccion": "Oriamendi", "Numero": "94", "Escalera": "", "Piso": "", "Letra": "", "ETRS89 (X)": 581904.8417, "ETRS89 (Y)": 4793439.799, "Web": "www.irenazsansebastian.com" }, "geometry": { "type": "Point", "coordinates": [ -1.990388735, 43.28932776 ] } },
{ "type": "Feature", "properties": { "N de registro": "HSS00711", "Nombre comercial": "OLATU", "Razon Social": "AITOR ALDALUR ZULAIKA Y OTROS, C.B.", "Municipio": "Zarautz", "Localidad": "Zarautz", "Direccion": "Ipar", "Numero": "10", "Escalera": "", "Piso": "", "Letra": "", "ETRS89 (X)": 566839.2059, "ETRS89 (Y)": 4792952.398, "Web": "www.olatuhotela.com" }, "geometry": { "type": "Point", "coordinates": [ -2.176135629, 43.28642769 ] } },
{ "type": "Feature", "properties": { "N de registro": "HSS00712", "Nombre comercial": "GARATE", "Razon Social": "GARATE CORUSCARE SL", "Municipio": "Donostia / San Sebastian", "Localidad": "Donostia / San Sebastian", "Direccion": "San Martin", "Numero": "54", "Escalera": "", "Piso": "1", "Letra": "", "ETRS89 (X)": 582268.8463, "ETRS89 (Y)": 4796434.34, "Web": "www.pensiongarate.com" }, "geometry": { "type": "Point", "coordinates": [ -1.985454207, 43.31624852 ] } },
{ "type": "Feature", "properties": { "N de registro": "HSS00713", "Nombre comercial": "AIA", "Razon Social": "AIA HOSPEDAJE SL", "Municipio": "Donostia / San Sebastian", "Localidad": "Donostia / San Sebastian", "Direccion": "Zabaleta", "Numero": "40", "Escalera": "", "Piso": "1", "Letra": "", "ETRS89 (X)": 583270.4772, "ETRS89 (Y)": 4797452.602, "Web": "pensionaia.com" }, "geometry": { "type": "Point", "coordinates": [ -1.972949527, 43.32530585 ] } },
{ "type": "Feature", "properties": { "N de registro": "HSS00714", "Nombre comercial": "PUNTA MONPAS", "Razon Social": "MONPAS HOTELA USTIAPEN, S.L.", "Municipio": "Donostia / San Sebastian", "Localidad": "Donostia / San Sebastian", "Direccion": "Jose Miguel Barandiaran", "Numero": "32", "Escalera": "", "Piso": "", "Letra": "", "ETRS89 (X)": 583448.8596, "ETRS89 (Y)": 4797831.025, "Web": "hotelpuntamonpas.com" }, "geometry": { "type": "Point", "coordinates": [ -1.970692192, 43.32869306 ] } },
{ "type": "Feature", "properties": { "N de registro": "HSS00715", "Nombre comercial": "SANTA ANA", "Razon Social": "LARRAGAIN, S.L.", "Municipio": "Arrasate/Mondragon", "Localidad": "Arrasate/Mondragon | Diseminado", "Direccion": "Uribarri", "Numero": "37", "Escalera": "", "Piso": "", "Letra": "", "ETRS89 (X)": 540583.1761, "ETRS89 (Y)": 4768314.723, "Web": "http://www.santaanamondragon.com" }, "geometry": { "type": "Point", "coordinates": [ -2.501560897, 43.06645166 ] } },
{ "type": "Feature", "properties": { "N de registro": "HSS00716", "Nombre comercial": "LA MARINERA", "Razon Social": "", "Municipio": "Donostia / San Sebastian", "Localidad": "Donostia / San Sebastian", "Direccion": "Embeltran", "Numero": "14", "Escalera": "", "Piso": "1", "Letra": "", "ETRS89 (X)": 582269.3163, "ETRS89 (Y)": 4797132.508, "Web": "" }, "geometry": { "type": "Point", "coordinates": [ -1.98534381, 43.32253419 ] } },
{ "type": "Feature", "properties": { "N de registro": "HSS00717", "Nombre comercial": "WELCOME GROS", "Razon Social": "WELCOME GROS, S.A.U.", "Municipio": "Donostia / San Sebastian", "Localidad": "Donostia / San Sebastian", "Direccion": "Iparragirre", "Numero": "3", "Escalera": "", "Piso": "", "Letra": "", "ETRS89 (X)": 583085.5064, "ETRS89 (Y)": 4797023.7, "Web": "http://www.welcomegros.com" }, "geometry": { "type": "Point", "coordinates": [ -1.975295491, 43.32146484 ] } },
{ "type": "Feature", "properties": { "N de registro": "HSS00718", "Nombre comercial": "DOLAREA", "Razon Social": "DOLAREA HOTELA, S.L.", "Municipio": "Beasain", "Localidad": "Beasain", "Direccion": "Nafarroa", "Numero": "57", "Escalera": "", "Piso": "", "Letra": "", "ETRS89 (X)": 564488.2085, "ETRS89 (Y)": 4766409.231, "Web": "http://www.hoteldolarea.com/" }, "geometry": { "type": "Point", "coordinates": [ -2.208204487, 43.04763906 ] } },
{ "type": "Feature", "properties": { "N de registro": "HSS00719", "Nombre comercial": "SAN IGNACIO", "Razon Social": "", "Municipio": "Donostia / San Sebastian", "Localidad": "Donostia / San Sebastian", "Direccion": "Iztueta", "Numero": "5", "Escalera": "", "Piso": "PPAL", "Letra": "", "ETRS89 (X)": 583064.8011, "ETRS89 (Y)": 4796990.436, "Web": "www.pensionsanignacio.com" }, "geometry": { "type": "Point", "coordinates": [ -1.975555844, 43.32116766 ] } },
{ "type": "Feature", "properties": { "N de registro": "HSS00720", "Nombre comercial": "MUTILOA", "Razon Social": "", "Municipio": "Mutiloa", "Localidad": "Mutiloa", "Direccion": "Mutiloa Bildua", "Numero": "3", "Escalera": "", "Piso": "1", "Letra": "", "ETRS89 (X)": 559243.3403, "ETRS89 (Y)": 4763561.341, "Web": "" }, "geometry": { "type": "Point", "coordinates": [ -2.272899255, 43.02242319 ] } },
{ "type": "Feature", "properties": { "N de registro": "HSS00721", "Nombre comercial": "HOTEL TRUEBA", "Razon Social": "HLS OSTATU LEKUA SL", "Municipio": "Donostia / San Sebastian", "Localidad": "Donostia / San Sebastian", "Direccion": "Trueba", "Numero": "1", "Escalera": "", "Piso": "", "Letra": "", "ETRS89 (X)": 583163.5286, "ETRS89 (Y)": 4797118.5, "Web": "http://www.hotelgranbahiabernardo.com/" }, "geometry": { "type": "Point", "coordinates": [ -1.974319025, 43.32230972 ] } },
{ "type": "Feature", "properties": { "N de registro": "HSS00723", "Nombre comercial": "TXANKA ERREKA", "Razon Social": "TXANKA GOIKOA, S.L.", "Municipio": "Orio", "Localidad": "Orio | Diseminado", "Direccion": "Txanka Aldea", "Numero": "5", "Escalera": "", "Piso": "", "Letra": "", "ETRS89 (X)": 571859.3419, "ETRS89 (Y)": 4792335.034, "Web": "http://www.hoteltxankaerreka.com" }, "geometry": { "type": "Point", "coordinates": [ -2.114344753, 43.28040682 ] } },
{ "type": "Feature", "properties": { "N de registro": "HSS00724", "Nombre comercial": "ERREKALDE", "Razon Social": "", "Municipio": "Lezo", "Localidad": "Errekalde | Diseminado", "Direccion": "Errekalde", "Numero": "22", "Escalera": "", "Piso": "", "Letra": "", "ETRS89 (X)": 592540.0678, "ETRS89 (Y)": 4797610.99, "Web": "www.errekaldehotela.com" }, "geometry": { "type": "Point", "coordinates": [ -1.858613698, 43.32564812 ] } },
{ "type": "Feature", "properties": { "N de registro": "HSS00725", "Nombre comercial": "SAN SEBASTIAN CENTRO", "Razon Social": "HOTELES SAN IGNACIO, S.L.", "Municipio": "Donostia / San Sebastian", "Localidad": "Donostia / San Sebastian", "Direccion": "Buen Pastor", "Numero": "18", "Escalera": "", "Piso": "1", "Letra": "", "ETRS89 (X)": 582557.6075, "ETRS89 (Y)": 4796445.257, "Web": "http://www.pensionsanignacio.com" }, "geometry": { "type": "Point", "coordinates": [ -1.981892091, 43.31631517 ] } },
{ "type": "Feature", "properties": { "N de registro": "HSS00726", "Nombre comercial": "ZELAA", "Razon Social": "HOTEL-RESTAURANTE ZELAA, S.L.", "Municipio": "Zaldibia", "Localidad": "Zaldibia | Diseminado", "Direccion": "Elbarrena", "Numero": "32", "Escalera": "", "Piso": "", "Letra": "", "ETRS89 (X)": 568913.6542, "ETRS89 (Y)": 4766327.758, "Web": "http://www.hotelzelaa.com/" }, "geometry": { "type": "Point", "coordinates": [ -2.153883923, 43.04651666 ] } },
{ "type": "Feature", "properties": { "N de registro": "HSS00728", "Nombre comercial": "AMAZKAR", "Razon Social": "", "Municipio": "Oiartzun", "Localidad": "Elizalde", "Direccion": "Kontzejuerreka", "Numero": "2", "Escalera": "", "Piso": "BAJO", "Letra": "", "ETRS89 (X)": 592406.9304, "ETRS89 (Y)": 4794665.91, "Web": "http://www.pensionamazkar.com/" }, "geometry": { "type": "Point", "coordinates": [ -1.860750916, 43.29915048 ] } },
{ "type": "Feature", "properties": { "N de registro": "HSS00729", "Nombre comercial": "ONDARRA", "Razon Social": "", "Municipio": "Donostia / San Sebastian", "Localidad": "Donostia / San Sebastian", "Direccion": "Secundino Esnaola", "Numero": "5", "Escalera": "", "Piso": "1", "Letra": "", "ETRS89 (X)": 583111.2417, "ETRS89 (Y)": 4797131.558, "Web": "www.pension-ondarra.com" }, "geometry": { "type": "Point", "coordinates": [ -1.974961817, 43.32243306 ] } },
{ "type": "Feature", "properties": { "N de registro": "HSS00731", "Nombre comercial": "PAKE-LEKU", "Razon Social": "PAKE LEKU SL", "Municipio": "Urnieta", "Localidad": "Urnieta", "Direccion": "Ergoien", "Numero": "6-B", "Escalera": "", "Piso": "BAJO", "Letra": "", "ETRS89 (X)": 581712.7713, "ETRS89 (Y)": 4788116.383, "Web": "" }, "geometry": { "type": "Point", "coordinates": [ -1.993545938, 43.24142043 ] } },
{ "type": "Feature", "properties": { "N de registro": "HSS00733", "Nombre comercial": "ARROBI OSTATUA", "Razon Social": "UDA ETORKIZUNA, S.L.", "Municipio": "Hernani", "Localidad": "Santa Barbara | Diseminado", "Direccion": "Santa Barbara", "Numero": "87", "Escalera": "", "Piso": "BAJO", "Letra": "", "ETRS89 (X)": 582657.6791, "ETRS89 (Y)": 4790968.752, "Web": "www.arrobiostatua.com" }, "geometry": { "type": "Point", "coordinates": [ -1.981481394, 43.26699809 ] } },
{ "type": "Feature", "properties": { "N de registro": "HSS00734", "Nombre comercial": "DONOSTI", "Razon Social": "URWELCOME SL", "Municipio": "Donostia / San Sebastian", "Localidad": "Donostia / San Sebastian", "Direccion": "Luis Pradera", "Numero": "7", "Escalera": "", "Piso": "", "Letra": "", "ETRS89 (X)": 585366.5626, "ETRS89 (Y)": 4796994.306, "Web": "http://www.hoteldonosti.com/" }, "geometry": { "type": "Point", "coordinates": [ -1.947172095, 43.32094473 ] } },
{ "type": "Feature", "properties": { "N de registro": "HSS00735", "Nombre comercial": "C7", "Razon Social": "CAPITAL TALENT, S.L.", "Municipio": "Donostia / San Sebastian", "Localidad": "Donostia / San Sebastian", "Direccion": "Colon", "Numero": "7", "Escalera": "", "Piso": "1", "Letra": "", "ETRS89 (X)": 582907.9981, "ETRS89 (Y)": 4797124.199, "Web": "" }, "geometry": { "type": "Point", "coordinates": [ -1.977469205, 43.32238924 ] } },
{ "type": "Feature", "properties": { "N de registro": "HSS00736", "Nombre comercial": "GAINTZA", "Razon Social": "", "Municipio": "Getaria", "Localidad": "San Prudentzio | Diseminado", "Direccion": "San Prudentzio", "Numero": "", "Escalera": "", "Piso": "", "Letra": "", "ETRS89 (X)": null, "ETRS89 (Y)": null, "Web": "http://www.hotelgaintza.com" }, "geometry": { "type": "Point", "coordinates": [ -2.209763702, 43.30274854 ] } },
{ "type": "Feature", "properties": { "N de registro": "HSS00737", "Nombre comercial": "ARTEA NARRICA", "Razon Social": "", "Municipio": "Donostia / San Sebastian", "Localidad": "Donostia / San Sebastian", "Direccion": "Narrica", "Numero": "3", "Escalera": "", "Piso": "1", "Letra": "", "ETRS89 (X)": 582373.6097, "ETRS89 (Y)": 4797151.264, "Web": "" }, "geometry": { "type": "Point", "coordinates": [ -1.984054907, 43.32269164 ] } },